id,brand,eshop,lat,lng,country,address,web,telephone,email
6105d615-25c7-49b8-b564-2b5801f5c156,gt,Vaunage Passion Velos Sarl,43.8139621,4.3487257,France,"165 Av. Jean Prouvé, Nîmes, 30000, FR",,466361627,
6441b601-37d9-4862-9a1e-3d47e8fcf12f,scott,VADILONGA SRL,39.251569,9.13851929,Italy,"VIALE ELMAS 172, CAGLIARI, 09122",,+39070240537,filippo@vadilonga.it
9534c4c5-a68b-4d80-a0fc-6a98cd7f06b0,kalkhoff,SARL Cycles Charreteur,47.785181,-3.3407959,France,"Rue Jean Baptiste Mertenot 330, Caudan, 56850",,+33297331790,cycleschedaleuxcaudan@gmail.com
850475e2-fe0a-493d-8d7c-95e6c608a17e,scott,CYCLEXPERTS BREST,48.4283695,-4.4589587,France,"RUE ROSEMONDE GERARD 5, GOUESNOU, 29850",www.cyclexperts-brest.com,+330298425857,contact@cyclexperts-brest.com
989897bd-430a-412e-9f6e-0120b783c10c,superior,CYCLES CHABBERT,43.4612,3.42283,France,"1 AVENUE FRNCOIS HUE, PEZENAS, 34120",,04.67.98.12.90,cycles.chabbert@orange.fr
aa4df157-9987-4536-a119-b0349cf331f4,scott,INTERSPORT EPAGNY,45.9341263,6.0865383,France,"RUE DU PARMELAN 2, EPAGNY, 74330",www.intersport.fr,+330450222822,cycle-epagny@reseau-intersport.fr
af9dd896-a3c7-4000-b6a9-8de154b9d696,haibike,La Bici Volante,45.59083490263793,11.522423093891852,Italy,"Via Gardellina 28, 36030 Rettorgole di Caldogno (VI)",,+390444986265,lucadezzo@libero.it
b1429343-1d39-42bc-b29b-2438f49136b1,gt,PLESTAN CYCLES,48.4650991,-2.5108373,France,"28 RUE CHANTOINE DU TEMPLE, LAMBALLE, 22400, FR",,+330296341690,plestancycle@orange.fr
d954d861-06df-4685-8498-2c7d33c2e3d3,haibike,BE CYCLES,45.76671,3.12081,France,"267 RUE DE L ORADOU, 63000 CLERMONT-FERRAND",,+33473262624,contact@becycles.fr
0983af7a-62a3-4435-aa6c-72a24091b9f9,cannondale,LordGun,45.52474588,10.19616707,Italy,"Via Fura, 7, Brescia, 25125",,0303757092,
d0c8af1f-ad3f-4103-9492-3114991fa1c7,giantliv,GIANT - DIJON,47.3118672,5.0520375,France,"121 RUE D AUXONNE, 21000 DIJON , 26",www.giant-dijon.fr/fr,+33380651888,cyclesdegueurce@orange.fr
c8000d0b-9f0c-498f-8a23-8edee9388ff9,trek,CICLI BONFANTI DI BRESCIANI ROBERTO,45.68858904797139,9.662249195106497,Italy,"VIA PREVITALI 19 BERGAMO , 24127 Italy",,0353054946,
c18ea3b2-8fba-441a-9d7d-7aafc320f917,ktm,SAS VELO CONTACT,47.2229183,-1.6397856,France,360 BD Marcel Paul 44800 Saint Herblain,www.velo-horizon.fr,tel:+33240432576,nantes@velo-horizon.fr
b29c8822-1335-4677-9ab9-f1da4fa9550d,gt,PARIS BMX (BMX only),48.8576042,2.3684879,France,"47 rue Amelot, PARIS, 75011, FR",,+3309.54.62.99.07,info@parisbmx.com
133b9000-39b0-4aef-9d7d-93faf2e4da2c,gt,Alltricks Store Issy les Mx,48.8234857,2.2732733,France,"9 Rue Auguste Gervais, Issy les Moulineaux, 92130, FR",www.alltricks.fr,+33130489007,
f714b6e1-af68-4da7-9d53-c7c736223b44,haibike,SPORT 2000,45.36816,5.58047,France,"ZI LES BLANCHISSERIE, 38500 VOIRON",,+33476668990,sport2000@gozzi-sport2000.com
4aec3ea4-61cf-4a3a-aa8d-10ac93e14964,focus,SAS Cycles,44.6445232,4.3773786,France,74 Route de Vals Ucel 07200,www.cyclesmagasin.fr,+330678926346,anthony@cyclesmagasin.fr
f672640b-ddaa-451c-bb4f-b9a0cb0fa7d9,trek,MONACO BIKE PRO,43.73342,7.419172,France,"3 RUE LANGLE MONACO , 98000 France",,0037793252240,
dfeed6e3-143f-444f-891f-164ecf068095,scott,BIKE INFINITY SAS,43.9164663,7.8487845,Italy,"VIA GIACOMO PUCCINI 3, IMPERIA, 18100",,+390183210708,bikeinfinity@libero.it
da370fc7-6aa5-489e-98a3-e540e24257de,kalkhoff,Cyclable Bordeaux Ouest,44.8324958,-0.6416169,France,"228 Avenue de la Marne, Mérignac, 33700",bordeaux-ouest@cyclable.com,+330556991148,bordeaux-ouest@cyclable.com
9d3ba36e-4cab-4037-8ece-568f44d77c6e,scott,CULTURE VELO AUCH,43.6650704,0.5910784,France,"RUE FRANCOIS MAURIAC 13, AUCH, 32000",,+330562618652,benjamin.perusin@wanadoo.fr
e8483296-56cf-4a48-b975-fd9e829dac84,trek,LE PAPE,45.76126,4.837106,France,"9 RUE GROLEE LYON , 69002 France",www.lepape.com,0472046464,
0b3f6b22-246c-4cdb-92ae-8cddad7f0c35,gt,DINAMO CICLI (BMX only),44.184165,12.1326948,Italy,"Viale G.Matteotti, 55, FORLIMPOPOLI, 47034, IT",,0039.3480.980.938,frulli.nicola@gmail.com
b3ccbeba-6ad3-4237-8d6e-9879a2d76ffd,scott,BIKEMANIA DI MANIGRASSO ANTONIO,40.5359957,17.4407356,Italy,"VIA AMENDOLA 27, GROTTAGLIE, 74023",,+393408385960,bikemania@libero.it
6cc580ab-e5ff-4172-8ec6-6dad2a16d1a5,trek,CYCLES LE GALL,48.45103,-4.254758,France,"10 Rue Alain Daniel LANDERNEAU , 29800 France",cycles-legall.com,330298215062,
64c8142e-54eb-49dc-8a9a-a23236d698b2,trek,Vélo 9,48.99572,2.191658,France,"147 boulevard Victor Bordier MONTIGNY LES CORMEILLES , 95370 France",www.velo9.com,0139787878,
e3195e09-8568-4d73-814d-62353c5235f0,haibike,SARL JPV SPORT 00194000,43.39684,5.99737,France,"ZONE CCIALE ST JEAN, 83170 BRIGNOLES",,+33498050266,intersportbrignoles@live.fr
d1504acd-1441-42be-867d-b4e00fa07a0b,cannondale,Germignaga Sport - Negozio di biciclette e accessori - Officina e noleggio,45.9947435,8.7269705,Italy,"Piazza XX Settembre, 37, Germignaga, 21010",,0332510111,
863137c7-68dd-4b2b-98eb-330c202b1866,cannondale,Culture Vélo Buchelay,48.98912106,1.69538642,France,"1 Rue de la Dordogne, Buchelay, 78200",,0134977815,
c1066792-0465-4d01-8e47-f988175efb07,ktm,CICLOMILLENNIO SRL,41.7621423,12.6159381,Italy,"VIA NETTUNENSE, 64 00047 MARINO (RM)",,tel:0039693546196,ciclomillenniosrl@gmail.com
4b09f18c-e2e7-467d-bfd6-4889f9ac64d6,cannondale,Addict Cycles (Réparation/vente vélo à Cagny),49.14441337,-0.25566449,France,"Rue du Grand Chemin, Cagny, 14630",,0231859149,
7fdd49de-fad6-4491-a1d0-5c8f67989237,ktm,FALEGNAMERIA PREGLIASCO,44.3821736,8.283718,Italy,C.so Stalingrado 4 17014 CAIRO MONTENOTTE (SV),www.bikerstree.com,,info@bikerstree.com
3119617a-534b-485b-ac84-936360f27fd0,scott,MONDOVELO LOZANNE,45.8554268,4.6843762,France,"ROUTE DE LYON 333, LOZANNE, 69380",,+330472489973,c2jvelo@orange.fr
9113f55e-1f6c-470f-9ac6-07ba9bed11fc,giantliv,NOE MOTO & BIKE SRL,40.7493857,14.5327202,Italy,"Via Dante Alighieri, 17, 84018 Scafati , SA",,+390818599732,noemotobikesrl@gmail.com
e087319d-2b16-4b94-a86a-fb1bd478f838,mongoose,Culture Velo Orgeval,48.9277927,1.9808165,France,"589 Av. Pasteur, Orgeval, 78630, FR",,33139755889,
e336aca9-8eb9-4230-a5a6-577532e3ff8b,cannondale,BAM CICLI & BAM RENT - Negozio e noleggio Bici Elettriche,44.36256125,8.57468564,Italy,"Via Monte Grappa, 45, Varazze, 17019",,3285964057,
71634936-8006-460c-903c-cbc106088d98,trek,WAREEGA,48.57301,-1.071884,France,"SARL GOUAULT GRASSET , 134 RUE DE MORTAIN SAINT HILAIRE DU HARCOUET , 50600 France",,0261900010,
98b90b6c-c343-4345-99b6-3de0a7360a40,cannondale,Cicli Sport Mania S.A.S,42.16956665,13.83203218,Italy,"Via Tiburtina Valeria, 32, Popoli, 65026",,08598881,
a1b7c2b2-d6a6-4fee-bfdd-5491aac48fa2,superior,HOSSEGOR BIKE,43.6797,-1.42704,France,"340 AV DU TOURING CLUB DE FRANCE, SOORTS-HOSSEGOR, 40150",,06.30.38.43.73,contact@hossegorbike.com
c851e3c1-ed3e-46f7-835a-09bc3d3d974e,trek,FLAGSHIP STORE - BORMIO SKI & BIKE S.R.L. CON SOCIO UNICO,46.4630558,10.3737317,Italy,"VIA BATTAGLION MORBEGNO 7 BORMIO , 23032 Italy",,0342911142,
2677cd75-ef6f-41bb-918e-9624059f3732,mongoose,Culture Velo Cyclix Cavaillon,43.8379639,5.0391623,France,"166, Cours Gambetta, Cavaillon, 84300, FR",,33490780706,
e8e59220-2c4b-4ce3-938d-59b186808705,focus,BAGNOLI BIKE snc di Davide e Alessandro Bagnoli,42.7645759,10.872591,Italy,Via Guglielmo Marconi CASTIGLIONE DELLA PESCAIA 58043,www.bagnolibike.com,+390564939266,info@bagnolibike.com
8df3311a-6236-4733-afa1-9251323be745,scott,CULTURE VELO LYON NORD,45.8057319,4.7809005,France,"AVENUE GENERAL DE GAULLE 29, CHAMPAGNE AU MONT D OR, 69410",www.culturevelo.com,+330478662575,69lyon-nord@culturevelo.com
b615328e-f9d4-419a-ac40-20981625f575,cannondale,Ciclimattio.com,44.5683146,7.4581115,Italy,"Via Donatori di Sangue, 1, Piasco, 12026",,0175270058,
0e196b8e-528d-4af4-829c-20c6660ad953,ktm,SARL VELOS DE LA VALETTE,43.1369829,6.0047234,France,300 Avenue de l Université Centre Commercial l Avenue 83 83160 La Valette-du-Var,www.velosdelavalette.fr,tel:+33494310959,contact@velosdelavalette.fr
fed1d44f-21db-40cc-9470-a4b39aa67cd6,focus,DOLOMITI BIKE SHOP DI MANOLO ZANELLA,46.0488019,12.0509478,Italy,"VIA CAMPO SAN PIETRO, 57A MEL 32026",www.dolomitibikeshop.com,+3904371680091,info@dolomitibikeshop.com
5b013454-3e1e-427b-ad26-f423a8c1c5ce,scott,E-BIKE WORLD,45.8535941,9.3647955,Italy,"VIALE PROMESSI SPOSI 115, VALMADRERA, 23868",,,
60e2e86d-88c5-4db6-8dd2-89e64dac0ee8,ktm,E-BIKE WORLD SRL,45.7966234,9.1924309,Italy,"Via Angelo Bassi, 5 22031 ALBAVILLA (CO)",,,ebikeworld85@gmail.com
f84dfd8b-a558-4d7b-a519-d7b8000b24f8,cannondale,Rush Cycle,45.85147512,9.37709154,Italy,"Via Alessandro Volta, 32, Malgrate, 23864",,03411840274,
a9e7158f-379e-42f1-a3aa-424180fb336a,trek,COSMOBICI,39.2439163,9.189893099999999,Italy,"VIA MERELLO 7/A E 7/B QUARTU SANT ELENA , 09045 Italia",www.cosmobicionline.it,3347473283,
f6b4cce6-d20d-4665-a7f4-2c7306a5841d,scott,BICIMANIA - LEGNANO,45.5947,8.9135,Italy,"VIA CARLO JUCKER C/O CENTRO GRANCASA, LEGNANO, 20025",,+3903311136250,legnano@bicimania.it
e8fdde98-9536-41f9-b258-b3ebdb56cdc3,trek,CYCLES AJP AIX,43.50688,5.408184,France,"SARL CYCLES AJP , 460 CHEMIN DE LA PIOLINE AIX EN PROVENCE , 13290 France",,,
53e9a156-ffc4-408a-a06e-664a201c1bc4,cannondale,Ciclo Tech,41.8101589,12.6803569,Italy,"Via Sciadonna, 12/13, Frascati, 00044",,0659875800,
c9b9546f-d9d4-4841-9ffd-cd2b93702a35,trek,CULTURE VELO LE HAVRE,49.50893,0.228496,France,"2 RUE DU CAMP PHILIP MORRIS GONFREVILLE L ORCHER , 76700 France",,0278930180,
aedf2313-a05e-4154-8306-c5636bdbca84,scott,CULTURE VELO SALLANCHES,45.9372089,6.6309045,France,"AVENUE DE GENEVE 1051, SALLANCHES, 74700",,+330450587242,74sallanches@culturevelo.com
8dd522d9-1982-4613-83fd-2a6eef72e723,haibike,CSL SHOP DI CASSIANI LUCA,42.54585664597252,12.601211761100858,Italy,"STRADA DI TAVERNOLO 13, 05100 Terni",,003907441906154,assistenza@bikeshopping.it
6bc7e756-fc66-4095-9343-6384fc4d9b68,focus,SIMPLY SRL,45.8125341,9.0704576,Italy,"VIALE FRATELLI ROSSELLI, 24/B COMO 22100",,+393484271756,simplysrl.info@gmail.com
f486499b-cd7e-4bc9-a9eb-77425a861de8,cannondale,Cycles 20 Sarl,42.6954629,9.44519277,France,"8 Rue Chanoine Bonerandi, Bastia, 20200",,+33495323064,
a92b6d9d-fd87-457a-96bc-1cc42b3343d9,scott,BICI SPORT SNC DI ARETUSO MAURO E,43.8048756,7.7173201,Italy,"CORSO MARCONI 4, OSPEDALETTI, 18014",,+390390184682020,info@bicisportshop.com
504af781-c20f-4a10-9fe5-0c21291bce6b,giantliv,GIANT CITY GAP - CYCLES BABAR,44.5610959,6.0778897,France,"4 COURS VICTOR HUGO, 05000 GAP",www.giant-city-gap.fr/fr,0465844220,contact@giant-city-gap.fr
105239a4-f269-424c-835c-3e86d58b649d,giantliv,Eurovelo SRL,45.972283,12.3100914,Italy,"Viale Matteotti 89, 31029 Vittorio Veneto , TV",,+39043857176,info@eurovelo.it
450593dd-1c37-4511-a7cf-57e0ec38f2f6,focus,SPORTISSIMO SRL,38.9742314,16.3212411,Italy,"VIA SOTTOTENENTE NOTARO, 12 LAMEZIA TERME 88046",,+390968447373,sportissimosrl@hotmail.it
e28ddd8e-1d2b-4034-a276-cd45ef25163d,ghost,Ago Bike,45.592078,9.896247,Italy,"Via Bescia 72, PALAZZOLO SOGLIO, 25036",,00393397749740,infoagobike@gmail.com
4f45727a-9b90-4fe4-bec8-07a73dfc3fa8,giantliv,IDEA BICI S.R.L.,44.6682324,7.8400675,Italy,"Via Conti Petitti, 16, 12062 Roreto di Cherasco , CN",www.ideabici.com/,+390172495864,info@ideabici.it
08bfa915-d8ea-4c02-8c81-5446f1c30d09,trek,CYCLES,44.6144563,4.4058902,France,"52 route de montelimar AUBENAS , 07200 France",www.cyclesmagasin.fr,0769935192,
3bdb1274-bd07-4ada-b7fb-40b73c475c9a,kalkhoff,La petite Reine SARL,45.2391163,4.6911405,France,"Chemin Chamieux 5, Annonay, 07100",,+330475336186,bouchet.benoit0848@gmail.com
d7804d04-5f1c-4384-ae12-dfef10a26355,gt,CYCLEWORKS,47.9921925,-4.0806962,France,"90 Avenue de la Libération, QUIMPER, 29000, FR",www.cycleworks.fr/,+3302.98.64.03.93,cycleworks@wanadoo.fr
7e808563-976c-4517-b6b9-c10a62ae9945,focus,EVOL BIKE DI VALENTI VITO,38.1486129,13.3399223,Italy,VIALE CROCE ROSSA 50AB PALERMO 90144,www.evolbike.it,+39091515244,info@evolbike.it
dab8de68-6b6f-4f93-a1b8-0306dee80ae4,gt,CYCLES 20,42.6941079,9.4432983,France,"Place du fort Lacroix, BASTIA, 20200, FR",,+330495323064,cycles20@wanadoo.fr
ed73cf2a-f095-4f5b-9d01-d30d2cf11cd0,scott,SPORT 2000 MONDO DOMMARTIN LES TOUL,48.6698,5.91,France,"CHEMIN DES VAUX, DOMMARTIN LES TOUL, 54200",www.mondovelo.fr,+330383644041,romainmondovelo@orange.fr
f9394002-d001-4de6-a8dc-bd2ad7f9e527,gt,ESPACE BIKE 12 (BMX only),44.0931287,3.0672462,France,"513 AVENUE DE CALES, MILLAU, 12100, FR",,+3305.65.62.87.68,espacebike12@orange.fr
f860c83d-b5ce-4b6d-9cf8-a1e8b8f26d92,mongoose,Danger Zone S.r.l.,46.1916001,11.0971205,Italy,"Via della Rupe 70, Mezzolombardo (TN), 38017, IT",,4611740012,giuseppe@d-z.it
7e8f4ba1-49d2-4042-92e6-0d4c0da759de,kalkhoff,Ecox Valence,44.9345399,4.8975632,France,"65 Av. Sadi Carnot, Valence, 26000",www.ecox.fr,+33427240448,valence@ecox.fr
2fd66639-3312-46be-9743-606e480f5977,trek,BIKE STORE COSTERMANO S.N.C. DI PERETTI,45.58576,10.74031,Italy,"VIALE DELLA REPUBBLICA, 4/B COSTERMANO SUL GARDA , 37010 Italia",,0456201250,
fb4d2de4-fba4-4bc3-9e4b-363501911495,scott,MORETTI SRL,45.7790064,11.824927,Italy,"VIA DELLE INDUSTRIE 2, SAN ZENONE DEGLI EZZELINI, 31020",,+390424383821,info@morettibassano.it
faaa832b-2dcb-4ecc-9883-6ce57b149d4a,cannondale,REBEL BIKE SRL,46.2602038,10.25701474,Italy,"Via Provinciale, 10, Mazzo di Valtellina, 23030",,3498353442,
460b4341-0cc0-4b30-a995-27fa3f872e06,cannondale,Motosystem S.N.C.,44.45235306,8.30456186,Italy,"Bormiola 20, Dego (SV), 17010",,19502333,
6b3738b4-ca34-486b-8ed8-cf6416989370,cannondale,Cycles Attitude,45.186979,4.7995464,France,"9 Place Bochirol, Sarras, 07370",,0972619543,
1cf07442-f462-487c-997a-db73feebc2e3,superior,BEL CYCLES,43.1116,6.11199,France,"Route des Loubes, Hyères, 83400",,0494650769,cad@nerim.net
89455be9-b7f8-476d-81ce-0c84a19dfa92,focus,LA BICILETTERIA DI PERNIGOTTI FABIO,44.6777034,8.4717181,Italy,"VIA NIZZA, 36 ACQUI TERME 15011",,+393393326248,labicicletteria@libero.it
ca3a8acd-fce7-462f-9f23-591de1b32a71,mongoose,Mondovelo Saint Maximin,43.4532035,5.860396,France,"ZAC Garniers, St. Maximin la Ste. Baume, 83470, FR",,33498050485,
e15acb75-dd44-470b-8fee-be797a1efe1c,trek,ALPES 2 ROUES,44.564164,6.495864999999999,France,"MONA , 6, Promenade de la Digue EMBRUN , 05200 France",www.alpes2roues.com/,330492431110,
141aa253-3fc8-44e4-8a72-e38a275608c9,kalkhoff,Thisin eCyles SAS,47.2279376,5.9332163,France,"Rue des Tailles 1, Franois, 25770",www.loisibike.fr,+330381863278,besancon@loisibike.fr
2b568c22-5e88-4046-873a-9ed7d7acffbe,giantliv,Bike Hospital di Andrea Bugnone,45.04041,7.35712,Italy,"via Torino 46, 10094 Giaveno , TO",,+393338226333,bikehospitalbugnone@libero.it
c278a854-d37b-40c8-9821-4d928702ad06,superior,SUMMUM BIKE-CYCLES CEDRIC JEANROCH,48.7577,2.0562,France,"11 RUE DES TILLEULS, VOISINS LE BRETONNEUX, 78960",,01.30.64.18.48,summumbike@gmail.com
32f8743a-135f-4a5f-9fff-b28545b71eb1,cannondale,Poison Bike snc,45.10158405,7.39095165,Italy,"Via Cuminie, 36, Villar Dora, 10040",,01118531312,
fdb00200-3a5a-4ce6-a62d-cec802a87d7d,ktm,EURL VELOZEN,48.4125369,-4.4593024,France,"13, rue de l eau blanche 29200 BREST",www.velozen.com,tel:+33298331524,contact@velozen.com
8f64bb47-6c43-4dca-820d-826917f7cfa5,scott,VELO 77 COULOMMIERS,48.8015255,3.0906691,France,"RUE DE L ORGEVAL 16, COULOMMIERS, 77120",,+330164041404,velo77.coulommiers@yahoo.com
76a8f26a-bd30-4566-adf0-a00a1ed66dfc,superior,INTERSPORT LIMOGES,0,0,France,"12 PLACE DE LA REPUBLIQUE, LIMOGES, 87000",,05.55.77.35.93,ah.durand@solig.fr
1b082dd3-a969-4c56-9dbc-2041bb91c8a6,focus,La Cyclerie des Alpes,44.5538605,6.0730496,France,Avenue Jean Jaurès 26 Gap 05000,www.lacyclerie.fr,+330492493725,brunolevent@aol.com
d6273a76-2ef9-4e32-9d22-051505902205,scott,DIGITALSHOPS DI FRANCO DONATO,40.9296427,15.6749397,Italy,"VIA MARIA LUIGIA TANCREDI 14, RIONERO IN VULTURE, 85028",,+390972725183,digitalshops@yahoo.it
c03807e6-92b5-4a61-95e3-d7c681c839db,scott,INTERSPORT ARRAS,50.281,2.726,France,"ZONE COMMERCIAL AUCHAN, ARRAS, 62000",,+330321016503,arras@reseau-intersport.fr
159cecb1-5d9d-4f00-a35b-91acfdd9a0cf,superior,CYCLES AVENT URE,46.3047,4.84094,France,"43 RUE DE LA LEVEE, SAINT LAURENT SUR SAONE, 01750",,0385406391,cycles-aventure@orange.fr
3ffbdb27-0d5a-4864-abba-2a7cc26e4380,superior,DPASS,43.1058,6.01637,France,"98 Av. Raimu, Le Pradet, 83220",,0494753924,contact@planete-cycles.com
549d2f31-4680-417a-989a-0a04e5b27785,superior,TECHNICYCLES,43.7947,4.68871,France,"11 RUE DES CHARPENTIERS, TARASCON, 13150",,04.90.93.14.10,murcia.david@neuf.fr
022f1453-34cc-4d48-b066-22bc8b19243e,gt,SPORTLINE (BMX only),44.3473724,1.4755691,France,"Parc d activité cahors sud, enteste 2, FONTANES, 46230, FR",,+330565354867,info@veloclic.com
b9137d60-3dc2-401a-a245-07d2a8bd2ef6,trek,CULTURE VELO SALLANCHES,45.93678,6.629081,France,"SARL MV BIKE , 1051 avenue de Genève SALLANCHES , 74700 France",,,
ca34af9e-cac6-420a-bb62-c0aa0ef8b40c,superior,LES VELOS DE LA BAIE,48.6069,-3.57581,France,"CRECH H AR MEIN, Plufur, 22310",,0618436108,contact@lesvelosdelabaie.bzh
d16fd33e-45a7-49ae-b447-b9401b0b2820,cannondale,Veloland Metz,49.0787028,6.1126297,France,"6 Rue les Gravieres, Augny, 57685",,0387561247,
8c875595-d051-492b-8424-ac8c88639518,gt,Sportler S.p.A. - Pordenone,45.9630038,12.6755856,Italy,"via Aquileia 7, Pordenone, 33170, IT",,+39434537200,
46442fb9-e303-4b93-bd6e-da9c2a4e99e8,superior,CULTURE VELO ROMORANTIN,47.3411,1.74985,France,"148 AVENUE DE VILLEFRANCHE, ROMORANTIN LANTHENAY, 41200",,02.54.76.16.41,41romorantin@culturevelo.com
64e18301-8ad3-45c5-b18f-2801104b92fc,ktm,CICLI ERMAN,45.0345921,12.2286381,Italy,"Via Dosso, 6/C 45014 Porto Viro (RO)",,tel:00390426/322383,er-man.cicli@libero.it
f89232e8-3d51-405b-a856-f19cf9bec207,trek,VELOLAND BORDEAUX,44.8586,-0.665096,France,"145 AVENUE DE MAGUDAS EYSINES , 33320 France",,0556282609,
d46ce2d4-7699-44a0-b568-3bdcb241ec89,ktm,AGO BIKE SNC di Agosti Mirko e Paolo,45.5920782,9.896247,Italy,"VIA BRESCIA, 72 25036 PALAZZOLO SULL OGLIO",,tel:3385764451,infoagobike@gmail.com
9cad769e-f3de-461f-a019-5eb151fd172b,haibike,MAVIN S.A.S.,40.82354,14.1915,Italy,"Via. Kennedy 4, 80125 Agnano (NA)",,+390810362238,info@mavinbikeshop.it
48310a6f-6e29-4ee2-a8fe-d7c0dfbf709b,scott,CULTURE VELO ALES,44.1313628,4.1060952,France,"AVENUE DE CROUPILLAC 273, ALES, 30100",www.culturevelo.com,+330466860473,30ales@culturevelo.com
1a805a19-c6b5-432b-87ed-fd820a75d693,scott,CYCLE ONE,44.005757,5.05102,France,"AVENUE CHARLES DE GAULLE 603, PERNES LES FONTAINES, 84210",www.cycleone.fr,+330490621814,cycleone@orange.fr
8f813107-bfdf-4b2a-aee8-f5948d6d3fd4,cannondale,Risico Sas di Ferrero Franco & C.,45.0823147,7.68844981,Italy,"Corso Brescia, 44, Torino, 10152",,0112482519,
add21b32-5bec-460e-9c05-6b7492f2f9e2,ghost,Tobike,46.544135,11.207665,Italy,"Vilpianerstr. 14, NALS (BZ), 39010",www.tobike-nals.it,00390471678225,tobike@tobike-nals.it
19fbf7b4-a276-4f63-bd26-a52e5c8f4bde,ktm,SARL ETAB DARNANVILLE,49.5617424,0.9556568,France,2 ALLÉE DE LA COTONNIÈRE 76570 PAVILLY,,tel:+33235910225,cycles.darnanville@wanadoo.fr
9ecf42a6-2cbd-406b-9dc3-efc9eaf7c4a0,gt,BMX GANGSTER/SCALVINONI FREDERIC (BMX only),43.8259559,3.9821205,France,"Rue de la Bonnette, CARNAS, 30260, FR",www.bmxgangster.com/fr/,+330427868006,bmxgangster@laposte.net
76a0bb48-0e6d-44b5-9a98-0e840d203004,gt,DF Sport Specialist Cremona,45.1495489,9.9978609,Italy,"Via Castelleonese 108, Cremona (CR), 26100, IT",www.df-sportspecialist.it/df-sport-specialist-crem,+39372458252,
078e4c0a-b8b3-46c0-95cf-ff284d5c3e11,mongoose,Culture Velo Bonneuil,48.774755,2.487765,France,"Av. des 28 Arpents, Bonneuil sur Marne, 94380, FR",,143999642,94bonneuil@culturevelo.com
e575009f-8cfd-4c51-8018-97608aeca37f,focus,DIPA BIKE STORE DI DI PAOLANTONIO IVAN,45.8239847,8.9607757,Italy,"Via Don Luigi Sturzo, 5 UGGIATE-TREVANO 22029",www.dipabikestore.com,+39031948783,info@dipabikestore.com
153bea76-a5f3-4961-b19d-6ab4ccc806eb,giantliv,Parigi Marco,46.57391,11.6719557,Italy,"Via Pedetliva 36, 39046 Ortisei , BZ",,,parigibike@live.it
ddc9b9ff-8e9d-4205-ad01-00f08faff8c3,scott,CYCLES GABORIT,47.0010185,-0.20688822,France,"Rue Gutenberg, STE VERGE, 79100",www.sasgaborit.com,+330549680365,cycles.gaborit@gmail.com
7a7c284f-ec76-452f-bb05-bfd1b0db6647,giantliv,GIANT ENGLOS - ENGLOS BIKE SPORT SAS,50.625284,2.9607398,France,"5 ALLEE DU PROGRES PARC AREA, 59230 ENGLOS",,+33320035992,contact@giant-englos.fr
5190404e-1a07-45ce-85a0-54ecbf2b4cb9,scott,CULTURE VELO PAU,43.3206424,-0.4240778,France,"CHEMIN DE LA PLAINE 3, LESCAR, 64230",www.culturevelo.com/-pau-,+33559778230,64pau@culturevelo.com
17246c0f-a445-48ee-8352-c34171b2af11,trek,CICLI OLIVIERI SNC,43.85449,12.75252,Italy,"VIA MONTEFELTRO 60 MONTECCHIO , 61022 Italia",www.cicliolivieri.it/,0721497268,
738a0309-bffe-476a-bce1-a08991adc467,kalkhoff,Ovelo Lillle,50.6167404,3.1236205,France,"avenue de l´avenir 32, Villeneuve-d´Ascq, 59650",www.ovelo.fr,,compta@ovelo.fr
094260d5-c9d8-478a-b475-ed479a79ea3d,ktm,RH Racing OHG / SNC,46.831922,12.088785,Italy,Anterselva di Sotto 78 39030 Rasun Anterselva (BZ),www.rh-racing.it,tel:3452658751,info@rh-racing.it
615e9c9f-b9d5-442e-82d0-4e515cbae4e0,cannondale,Roulezfacile.com,46.23621675,1.48701538,France,"22 Bd Jean Moulin, La Souterraine, 23300",,0587571536,
5e635e49-3d38-4d0f-84c2-81f364990c29,trek,360BIKESTORE,45.70651,13.74768,Italy,"VIA STAZIONE PROSECCO, 13 , CENTRO LANZA SGONICO , 34010 Italia",www.360bikestore.it,040225159,
46b33665-fe50-4f3f-bd42-2df51976c111,scott,PAVONE SPORT DI SCHIAVONE MARIA,38.04477,15.658364,Italy,"VIA TORRENTE PERARA 13, REGGIO CALABRIA, 89134",,+390965674412,pavonesport@gmail.com
d0d3a639-a23e-48a8-8b4b-4a2293fc5455,ktm,COSTE DI PACINI CLAUDIO E C. S.A.S.,43.888388,10.9170967,Italy,"Via Montalbano,36 51034 Ponte Stella-Serravalle (PT)",www.ciclicoste.it,tel:00390573526161,info@ciclicoste.it
acb9d40d-92d6-4232-bf19-77978f97387e,trek,MCF,45.190613,5.729896,France,"Maison du Tourisme - 15 rue de la République , bureau 215 - étage 2 GRENOBLE , 38100 France",,0952646440,
b4b6c212-65fa-4848-ae84-85acbed4004a,gt,OZONE VTT CYCLES,43.6261538,3.4252516,France,"1 AV DU LAC DU SALAGOU, CLERMONT L HERAULT, 34800, FR",,+3304.67.96.27.17,ozone.vttcycles@gmail.com
3d57a6d5-c45d-4fc6-9fbe-e4e858025403,cannondale,Cycles Pierre,48.824098,7.48704123,France,"11 Rue de Kirrwiller, Bouxwiller, 67330",,0388913965,
8512e9eb-fad4-48fe-be0c-07049bd5adea,superior,CYCLES TILLOUS,43.1,-0.7167,France,"65 BIS RUE MARCEL LOUBENS, ARETTE, 64570",,0559889061,cyclestillousatelier@orange.fr
14e7e53a-e02f-4b2e-bb2e-dc6e70366c2f,giantliv,SPEEDY BIKE DI ERATOSTENE DANIELE E MASENGA MARCO S.N.C.,44.9054103,8.2237583,Italy,"Corso Alessandria 215, 14100 Asti , AT",,+390141230237,info@speedybikestore.it
883f9baf-13ec-4c5f-a462-0b53f70fb196,scott,LA BOUTIQUE DU TRIATHLON,48.7884713,2.2591054,France,"AVENUE DU GENERAL DE GAULLE 181, CLAMART, 92140",www.laboutiquedutriathlon.com,+330146019960,boutique.du.triathlon@wanadoo.fr
9e452cec-29b5-436d-b03d-5e16c10b86c5,ghost,Nuova Comac,45.30279,7.879516,Italy,"VIA SAN FRANCESCO D ASSISI 96, CALUSO (TO), 10014",www.lollobike.it,00393703152059,lollobike17@gmail.com
ac9b3b83-d495-4f00-b76a-38a5d91b0534,superior,SAS SPORTS ET LOISIRS,51.0135,2.303,France,"C. CIAL AUCHAN, GRANDE SYNTHE, 59760",,03.28.25.42.70,contact@apesud.com
b8e3e5d6-aec6-471f-9fab-3aa85befd66b,superior,BP CYCLES,44.3584,2.02338,France,"AVENUE DE TOULOUSE, VILLEFRANCHE DE ROUERGUE, 12200",,05.81.39.54.58,b.pailly@gmail.com
3b1a9f79-42a4-4549-988b-4c7e4db01faa,gt,G 2 ROUES (BMX only),46.033423,4.0586163,France,"34 RUE GEORGES PLASSE, ROANNE, 42300, FR",,+3304.77.71.85.73,g2roues@orange.fr
a862f85e-54e5-4100-afae-502037dbdb02,scott,GIANNI SPORT S.N.C. DI GIANNI MARIANGELA,44.5472,10.8439,Italy,"VIA SAN FRANCESCO 119, FIORANO MODENESE, 41042",www.giannisport.it,+390536831247,info@giannisport.it
efb986e2-e1be-470e-a343-5c098c28a44f,mongoose,Culture Velo Aubagne,43.287172,5.5299711,France,"CD2 rue de la Bastidonne, Aubagne, 13400, FR",,33442708472,
93d5c75c-92bd-4b29-9ccf-c9ca4ac9723f,gt,DZUMAC (BMX only),48.0026228,-2.0976286,France,"36 AV DE LA LIBERATION, PLELAN LE GRAND, 35380, FR",,+330299612833,dzumac@orange.fr
82028f5b-5f2b-4d12-a8fa-cb84fea7ef71,gt,PERIGORD CYCLES (BMX only),44.8466499,0.530979,France,"ZAC Saint LIZIER, CREYSSE, 24100, FR",,+330553245764,perigord.cycles@wanadoo.fr
b729da42-a469-4cd2-8730-26ea4393a93b,gt,TECH BIKE 71,46.3451966,4.7216469,France,"38 RUE DE CARIJACQUES, LA ROCHE VINEUSE, 71960, FR",www.teckbike71.fr,+3303.85.31.62.56,tech-bike-71@orange.fr
ed9c4bb5-e0bc-4a58-9514-da2624682c11,cannondale,La Verde Bike and Fun,44.84102735,10.15153166,Italy,"Via Don Milani, 20, Fontanellato, 43012",,05211891459,
0e31f7e4-7dbb-4857-9e19-29a8cfbec5fb,haibike,Losacco Giuseppe,40.81444383070321,16.419266738219168,Italy,"Via Trieste 75, 70024 Gravnia in Puglia (BA)",,+390803261481,losacco.giuseppe@tiscali.it
007c5365-c246-4372-9eaf-b427c72f9354,cannondale,Vélonaute Genay,45.89747991,4.83065809,France,"La Richassière, Genay, 69730",,0478293864,
38248180-9b8c-486f-93f6-4cbdf2c5e831,scott,BICI E SPORT,37.4533747,13.879336,Italy,"VIA CAVALIERI DI VITTORIO VENETO 73, SERRADIFALCO, 93010",,,glovalenti@hotmail.it
279b0add-6f53-458c-b5f6-b5279b9df459,scott,INTERSPORT LE GRAND BORNAND,45.9407684,6.423493,France,"LE CHARVET, LE GRAND BORNAND, 74450",www.intersport.fr,+330450023561,elodie@glissenordic.com
b2e2fa42-db6f-4775-a1ce-2ec90dbbce57,focus,Mondovelo Le Mans Sud,47.941942,0.231495,France,10 Rue Wilbur Wright Mulsanne 72230,www.mondovelo.fr,+330243785090,mondovelolemansud@orange.fr
f566c82a-d92a-4176-88d5-c20a41de630b,focus,Missland SASU,43.1443764,6.2342026,France,Chemin du puits de la commune 1370 La Londe Les Maures 83250,www.stormbicycle.fr,+33671420702,contact@stormbicycle.fr
64800ffb-e3fe-4cfd-8201-941cfe99d800,ktm,SARL VSOKOL,47.8008682,-3.2835029,France,5 Avenue da la République 56700 Hennebont,,tel:+33688532592,becyclette56@gmail.com
a6f0257f-46ba-4dcd-acfe-80264a0ddfc8,cannondale,CINGOLANI BIKE SHOP,43.6221283,13.12279205,Italy,"VIA ARCEVIESE 1, OSTRA, 60010",,+39071688548,
a0c31fc8-3d49-41f3-a0d3-9888a319dc68,trek,CYCLEXPERTS ARCHAMPS,46.14027,6.13174,France,"338 route de Collonges ARCHAMPS , 74160 France",,0450959504,
41077773-24a4-48a0-8a3a-fe5c09d8ec24,trek,BIKE & SPORT DI FORLENZA LUCIANO,40.64989,15.23859,Italy,"VIA ALCEO MAROLDA 3 CONTURSI TERME , 84024 Italia",,0828991009,
e11b7672-5be6-48bd-bc76-d438ea48ce19,scott,CYCLES SPORT PASSION,46.7447441,5.9208976,France,"RUE DE GOTTMADINGEN 226, CHAMPAGNOLE, 39300",www.cycles-sports-passion.com,+330384523190,cyclessportpassion@gmail.com
5bc132bd-3f7f-46d7-a288-aba617e5594f,kalkhoff,Ecox Paris 12,48.8486045,2.3713864,France,"24/26 rue de Lyon, Paris, 75012",www.exox.fr,+33158823205,paris12@exox.fr
c9f8f875-e547-49e5-ab94-c9dd18c4d9bb,superior,BICIMANIA,45.6044,8.88865,Italy,"Via C. Jucker nr. 2, Legnano, 20025",,03311136250,legnano@bicimania.it
bfe80153-ecce-485a-a4c5-ca935e6c9164,scott,CYCLES ZANET,49.7363274,4.7065058,France,"Allee de L Angelique, LA FRANCHEVILLE, 08000",www.cycles-zanet.com,+330324520587,infos@cycles-zanet.com
cfc8677e-fd1f-4abe-a224-140a2d2e5fb7,haibike,OVELO MAUGUIO,43.59065,3.94042,France,"57 RUE DE LA JASSE, 34130 MAUGUIO",www.ovelo.fr/,+33467687123,montpellier@ovelo.fr
7c7cfa63-18ce-46a7-a6c1-32aa6dc2ae3a,giantliv,Faieta Bike - L Aquila,42.35973264183248,13.37999946542443,Italy,"Via Corrado IV, 72, 67100 L Aquila , AQ",,,
2dfd1483-c187-45fd-acb2-91dae5bdbf52,superior,VELO ELECTRIQUE FRANCE,48.8812,2.3737,France,"33 AVENUE SECRETAN, PARIS, 75019",,01.48.43.51.31,contact@veloelectriquefrance.fr
c04da80f-4708-4d44-bf4a-62e33433e980,ktm,Vuerich Shop,46.35,11.4833333,Italy,via Lavazè 4 38030 varena,www.vuerichservice.it,tel:0462341367,rent@vuerichservice.it
381f9f3b-4cba-4e77-9786-fa3205d4077d,giantliv,Green Bike di Francolini Lucio,43.692407,12.8176469,Italy,"Viale Oberdan 32, 61034 Fossombrone , PU",www.green-bike.it,+390721714701,info@green-bike.it
e434e1b9-df17-4711-8f46-0bf7c3ab01af,ktm,TROC BIKE,50.2764997,3.6301392,France,40B Route de valenciennes 59530 Orsinval,,,trocbike@hotmail.fr
6e890e4f-c37b-4a6e-b896-5adfa46a5c4e,kalkhoff,Biclouzen EURL,47.9760181,-4.0784916,France,"56 avenue de Kéradennec, Quimper, 29000",www.velozen.com,+330298570213,contact@velozen.com
f457e62e-db13-4502-ba62-40ed5bf03b4e,kalkhoff,EURL Cycl`Ollier,48.5842247,7.775723,France,"Rue de l`Yser 6, Strasbourg, 67000",,+330388343655,cyclollier@gmail.com
56837dc0-f009-4072-9bab-e76c251ca78f,gt,Mondevelo,44.0411804,1.3823599,France,"609 Route du Nord, Montauban, 82000, FR",,+33563914529,
bc891e9d-a24a-4b24-9934-5ee688f2cd47,kalkhoff,Cycles Passieu Eurl D.C.G.,43.8147407,4.3346718,France,"Avenue du Marechal Juin 2040, Nimes, 30900",www.cyclespassieu.com,+330466210916,cycles.passieu@wanadoo.fr
b4079e56-b578-4a3c-b440-fccb1e493c6f,focus,TONDI SPORT DI TONDI ANGELA E C. SAS,42.8790937,11.6776671,Italy,"VIA MATTEOTTI, 26 ABBADIA SAN SALVATORE 53021",www.tondisport.it,+390577778016,info@tondisport.it
866c353b-26ab-40d5-be19-60a813bb5a91,trek,ALFANO BIKE S SRLS,40.72476,14.54117,Italy,"VIA SCAFATI 157 SANT ANTONIO ABATE , 80057 Italia",,0818734932,
15e81de8-6bc7-417b-9e64-ab250b95bd2a,superior,INTERSPORT ST GENEVIEVE DES BOIS,48.6247,2.34629,France,"10 Av. de l Hurepoix, Sainte-Geneviève-des-Bois, 91700",,0169516240,
68197e42-2370-447d-9f64-eb036cfd4e28,scott,MY VELO VALENCIENNES,50.3419103,3.4803304,France,"RUE VICTOR HUGO 220, TRITH ST LEGER, 59125",www.my-velo.fr,+330366061899,valenciennes@my-velo.fr
31bd5e80-878b-4116-806a-4bf76d8b7a29,focus,Leader Cycles SARL,43.6623187,7.1934862,France,boulevard Jean Ossola 54 St Laurent du Var 06700,www.leadercycles.fr,+330493075302,leadercycles06@wanadoo.fr
2d7968f5-ae50-457e-96a5-9775c2423f03,scott,BIKER S SAS (FERMO),43.102811,13.8351343,Italy,"VIA CHERUBINI 10, MARINA DI ALTIDONA, 63824",,+390734260099,commerciale@bikersitaly.it
942c4fd6-7961-4623-93da-a89102b8306c,ktm,SARL E-MOBILITY,44.8656807,-0.4799705,France,28 AVENUE DU PERIGORD 33370 ARTIGUES PRES BORDEAUX,,tel:+33556351000,jrpemobility@orange.fr
d12ba5b3-6eea-458d-8c2b-d7b47edbd836,cannondale,Ariege Cycles,43.12831195,1.61414225,France,"1 Chem. de la Châtaigneraie, Pamiers, 09100",,0561673844,
1b856c15-b7b2-48e1-86a5-e41e3544b45c,gt,TRANSUMANCE BMX SHOP (BMX only),43.9388,2.08458,France,"Nicolas CAMBON rue Raymond VII, CASTELNAU DE LEVIS, 81150, FR",,+330687520400,cambonn@wanadoo.fr
84b4eeaa-cf2d-4485-bdda-eacdebe4f5e2,ktm,CICLI VERGATI,42.033613,11.8539203,Italy,"Via Aurelia, 461/B 00058 Santa Marinella (RM)",www.virgilio.it,tel:00390766/535484,v_vergati@virgilio.it
aa0b9cb3-5622-4108-b578-0c0b14a02797,cannondale,Mondovélo Reims,49.244507,3.98245375,France,"2 Rue du Champ Jupin, Ormes, 51370",,0326880625,
91e991c9-21e4-4d89-9a81-47415f284466,ktm,TOPHY MOTO,47.737188,6.8358522,France,55 Faubourg d Alsace / ZAC du Mont Jean 90200 GIROMAGNY,,tel:+33684369472,tophymoto@wanadoo.fr
ae636fc6-9b65-4a50-b3f5-92cdfed5fb9d,trek,CYCLE BOX LE MANS,48.04729,0.169796,France,"7 RUE DES PETITES MARNIERES SAINT SATURNIN , 72650 France",,0243523560,
7528b860-1199-4695-a234-0949ab351dc2,focus,INBIKE VALSUGANA DI CASAGRANDA STEFANO,46.0543525,11.4493038,Italy,Via Lunar 58 BORGO VALSUGANA 38051,www.inbikevalsugana.it,+393460150795,info@inbikevalsugana.it
7c2c1ee9-a1c6-4a13-b9d2-c9ee8faf9436,scott,CULTURE VELO SEYNOD,45.8732771,6.0865123,France,"AVENUE DE PERIAZ 11, SEYNOD, 74600",www.culturevelo.com,+330450100202,74annecy@culturevelo.com
ecd5fb08-50be-4ff3-bf58-c0c55ac5c304,mongoose,Pedaliamo In Italia,44.3053937,11.8880086,Italy,"Via De Crescenzi 42, Faenza (Ra), 48018, IT",www.pedaliamoinitalia.it,+3954629600,
c0f87076-6dc9-49f4-bcad-0b98e0c06798,mongoose,Mondovelo Olivet,48.5833705,2.2216947,France,"Route d ollainville, Egly, 91520, FR",,33169262000,
4f18f953-cd0c-45f7-a33d-d0ebe2499065,scott,PUR VELO,48.805404,2.132366,France,"AVENUE DE SAINT CLOUD 31, VERSAILLES, 78000",www.purvelo-versailles.fr,+330139660199,purvelo@bbox.fr
45a715c0-53dd-4f95-a0b4-891ad7bcd2d7,giantliv,GIANT PARIS XII,48.8470583,2.4052504,France,"72 COURS DE VINCENNES, 75012 PARIS",www.giant-paris12.fr/fr,+33143435105,giantparis12@gmail.com
7c5457b1-b599-4127-aa3e-6715a4afe402,trek,CULTURE VELO VILLEBON,48.70188628105719,2.255889518554679,France,"2 avenue de la Plesse , Parc d activités VILLEBON SUR YVETTE , 91140 France",,0169310104,
aa853ce9-2503-4d79-9aea-693a36835126,scott,LECLERC SPORT,45.47169,4.43298,France,"BOULEVARD DES 4 ARPENTS, ANET, 28260",,+330237380444,sport.anet@socamaine.fr
39283402-51b1-45b6-ab0c-6ac5c7d3722e,giantliv,Giant Le Mans,47.9748961,0.1683694,France,"16 RUE PIERRE MARTIN, 72000 LE MANS",www.giant-lemans.fr/fr,+33243724550,mag.nsbike.72@sfr.fr
c276733f-df98-49b4-8ccf-d1f27dba2c1c,cannondale,VO3 Sport SARL,46.95390165,4.2950421,France,"41 Av. Charles de Gaulle, Autun, 71400",,0385525542,
6c998766-a3cc-404b-b4af-2357efd7e441,gt,VELO PASSION CARAIBE (BMX only),49.4764671,0.3363956,France,"Parc du Hode, ST VIGOR D YMONVILLE, 76430, GP",,05.90.68.44.12,velopassioncaraibe@wanadoo.fr
2d486d28-9e4c-48f4-9190-5567cece38ba,giantliv,GIANT CITY SAINT REMY DE PROVENCE - SARL VELO PASSION,43.7939345,4.8264689,France,"1B IMPASSE DE LA 1ERE DFL, 13210 SAINT REMY DE PROVENCE",,0486654859,giant-saintremydeprovence@outlook.fr
845bf29f-97e2-42a4-8953-806d908dacd9,gt,PROBIKESHOP / DOLPHIN FRANCE (BMX only),45.6540808,4.9243939,France,"E-PROLOG, CHAPONNAY, 69970, FR",,+3309.72.22.61.94,j.vidal@probikeshop.fr
b6fe367e-7255-4df8-bd01-d06b58618698,haibike,Cycling Center Lab SRL,44.15849487873624,12.241348104283523,Italy,"Cerchia Di San Giorgio No. 129, 47521 Cesena (FC)",www.cyclingcenterlab.com/,+390547481889,info@cyclingcenterlab.com
ec457df7-1b9b-42c2-a284-8810dc76704c,superior,PLESTAN CYCLES,48.4859,-2.47242,France,"28 RUE CHANOINE DU TEMPLE, LAMBALLE-ARMOR, 22400",,0296341690,cycleplestan@orange.fr
b3b9ab30-10e3-48e3-94f7-2d644c5de71a,superior,TECHNIC BIKE QUIMPER,48.0152,-4.08455,France,"Av. de Gourvily, Quimper, 29000",,02.98.75.09.52,technic.bike.quimper@orange.fr
474c20fb-937e-4457-9ae2-6537a3eaf81e,superior,LES VELOS DE VICTOR,47.0615,-0.88394,France,"30 RUE BRETONNAISE, CHOLET, 49300",,0614994636,lesvelosdevictor@gmail.com
3f90fe54-4d23-4abd-8f19-b82fc306832f,giantliv,GIANT LYON CENTRE - SARL PLPL,45.760108,4.8413018,France,"13 QUAI VICTOR AUGAGNEUR, 69003 LYON",www.giant-lyon-centre.fr,+33472756748,lyon@cycles-blain.com
b77d5c97-2966-4ced-be28-b3135d794ddf,ktm,Cycles Barelli,50.684807,3.152786,France,163 Rue Kléber 59170 Croix,www.my-velo.fr,tel:+33320244430,administratif@my-velo.fr
a3206612-6b0a-4987-b921-97b97c20d2d9,gt,BMX2DAY MARKETPLACE (BMX only),50.9554213,1.9144812,France,"885 RUE LOUIS BREGUET, CALAIS, 62100, FR",,+3303.21.82.08.89,shop@bmx2day.com
ba4e3e0c-0944-4d7c-ae2c-fc1b9f486a05,trek,CICLOSPORT DI PORCIATTI,43.45859,11.10829,Italy,"VIA LAZIO 19 POGGIBONSI , 53036 Italia",www.ciclosportporciatti.biz,0577938507,
8db0b8a1-be6a-4728-ad9b-b9cb47f6be8e,scott,CUSSIGH BIKE S.R.L.,45.6191609,13.811473,Italy,"VIA FLAVIA 55, TRIESTE, 34148",,,info@cussighbike.it
50e0b0a5-c1db-4429-9251-c56601d770b6,trek,WHEEL-E,49.4399919,1.0991468,France,"208 RUE MARTAINVILLE ROUEN , 76000 France",www.wheel-e.fr,0954125479,
34013797-478f-4523-a7d7-97c06cf60597,scott,INTERSPORT MERS LES BAINS,50.0654,1.3881,France,"LES GRANDS MARAIS, MERS LES BAINS, 80350",,+330227280866,merslesbains@reseau-intersport.fr
ca54df31-652b-4e96-8795-32720f64c5c5,cannondale,Culture Vélo Boyer,45.73904454,3.19759527,France,"15 Avenue de la Liberté, Cournon-d Auvergne, 63800",,+33473848090,
f3eb807f-e706-4461-9e19-5aa8201fd739,ghost,Bike Store,46.737548,12.168165,Italy,"BAHNHOFSTRAßE 1, NIEDERDORF (BZ), 39039",,00390474740050,bikestore@pffft.it
75debcf8-70ca-4d9c-bc65-319c9952f9d4,focus,TRAVERSO STEFANO GIANMARIA,43.8093174,11.236794,Italy,"VIA DELLE PANCHE, 166 CASTELLO 50141",,+393358127445,s.g.traverso67@gmail.com
8fef852b-93cc-4d5e-98aa-c70f1a6d42f4,haibike,Punto Ciclo Conte,44.368078200922945,7.636467027596503,Italy,"Via Martiri 26, 12081 Beinette (CN)",,,contedenis@libero.it
64dba3f4-9273-415b-841c-6c7553b19bc1,trek,CULTURE VELO COURNON / BOYER CYCLES,45.73899,3.198301,France,"15 avenue de la Liberté COURNON , 63800 France",www.culturevelo.com,33473848090,
9456159f-4dd4-462a-84be-79af75da1719,giantliv,BIKE ACADEMY S.R.L.,43.8154396,10.4989339,Italy,"Via di Sottomonte, 12, 55060 Capannori , LU",www.bikeacademyshop.com,+39058394116,amministrazione@bikeacademyshop.com
571630d3-50cc-4ad9-bb4d-601d6d54fa5a,scott,CITIBIKE CHERBOURG,49.6397249,-1.6252642,France,"RUE ALBERT MAHIEU 11, CHERBOURG EN COTENTIN, 50100",www.citibike.fr,+330950737004,cherbourg@citibike.fr
9c205b70-540a-409d-a359-6207e89c55eb,ghost,Giuseppe Olmo,44.397176,8.94597,Italy,"PIAZZA ROSSETTI 19, GENOVA (GE), 16129",www.olmogenova.com,0039010562025,olmo.genova@olmopaolo.com
a01ecfae-9256-47fe-bc87-73f3185985d6,trek,CICLI REBIKE SNC,41.35117,13.42601,Italy,"VIA MADONNA DELLE GRAZIE 137 FONDI , 04022 Italia",www.ciclirebike.it,3939485634,
6d02caae-c7e4-48d1-a596-8d89e6350702,scott,INTERSPORT SALAISE,45.339892,4.8057997,France,"RUE DE JONCHAIN NORD 4, SALAISE SUR SANNE, 38150",www.intersport.fr,+330474111456,cycle.intersport.salaise@gmail.com
5eeabafc-a724-4ee2-badf-ef13a1809039,ktm,MAXIMUM,48.8382268,-1.5381353,France,1671 route de Villedieu 50400 GRANVILLE,,,maximum1@orange.fr
ce10d6b4-867e-4132-8a28-6ae7b51d6117,kalkhoff,EURL Cycles CHRISTOPHA,47.7591755,7.3996869,France,"route d l`lle Napoleon 100, Rixheim, 68170",,+330389619708,espace.velos@orange.fr
8ddcd5db-be06-48a4-af57-2b83530822f8,ghost,360,46.154038,10.766752,Italy,"Via dei Gaiulin 1, GIUSTINO (TN), 38086",,00390465501554,maddmaxx@libero.it
f022c3e2-b55a-4f17-8236-78ffe2f64255,gt,OKI BIKE /CULTURE VELO (BMX only),43.1223778,5.8470737,France,"212 CHEMIN DES DELPHINIUM, OLLIOULES, 83190, FR",,+330494634637,83toulon@culturevelo.com
a7bb30d3-d493-497f-a4c3-0f17d8b9bfca,scott,CYCLES PICART ZEG,48.0722622,6.8765135,France,"BOULEVARD KELSCH 16, GERARDMER, 88400",www.veloland.com,+330329633594,cyclespicart@wanadoo.fr
c1aec443-77db-484e-be1a-928d8b9533ea,cannondale,111 Bicycle Store Vicenza,45.5397477,11.5211574,Italy,"Viale S. Lazzaro, 25, Vicenza, 36100",,0444980994,
34e64fb5-b79e-4f0f-b83b-588973eb41c2,trek,ECOLOCOMOTION,49.035010533302966,2.033572093254099,France,"8 rue nationale VAUREAL , 95490 France",ecolocomotion.com/,0952862114,
0133ba34-ba72-43ae-92e9-e30adb6071dc,kalkhoff,Cycles Evasion 14 SARL,49.1448677,0.2219548,France,"Rue Henry Cheron 104, Lisieux, 14100",,+330231317417,cyclesevasion14@orange.fr
eeca901b-2ec5-43e7-94d2-bf607d587756,cannondale,R vélo,48.5419339,-2.778219,France,"23 Rue Jules Lequier, Plérin, 22190",,0296737495,
39b06705-464f-48af-93f3-d95634c90fbd,focus,TECNOBIKE S.R.L.,42.0807224,12.2849915,Italy,"VIA ANGUILLARESE, 46 ANGUILLARA SABAZIA 00061",www.tecnobike.info,,mail@tecnobike.info
db414dec-8119-477d-a7b5-996a6a40e46c,gt,Bike Space SRL,40.9659969,17.1096254,Italy,"Via Benedetto 9, Conversano, 70014, IT",,+393533898431,
1b09c0d4-02e4-4f36-8515-05fc80047f96,ktm,Tekno bike Store DUE,44.0437626,12.5874936,Italy,"Via Flaminia,130/A 47900 Rimini (RN)",www.teknobikestore2.it,tel:00390541/372858,info@teknobikestore2.it
5814340e-1fc2-4ed0-a03f-b87188d28c25,superior,"DF SPORT SPECIALIST SPA, Centro Commerciale ""BOSSI""",45.6296,9.01426,Italy,"Via del Malnino 5, Gerenzano, 21040",,0209997330,
6cd10b60-1b39-4f17-a545-174aff39e14e,scott,GARAGE BIKE DI STEFANO GARAU,39.4385204,9.5697913,Italy,"VIA NAZIONALE 184, VILLAPUTZU, 09040",,+393496344859,stegarau87@yahoo.it
c01fcaf9-73d3-463b-ab27-d45f181ada9c,superior,PERA CYCLES SPORT,43.6418,5.09456,France,"228 BD NOSTRADAMUS, SALON DE PROVENCE, 13300",,04.90.56.44.10,cyclesportpera@orange.fr
4d16c0de-ce3f-4147-b536-3994deb61309,cannondale,Espace Cycle Motard,43.61763715,1.4661224,France,"Avenue Yves Brunaud, Toulouse, 31000",,0561483144,
03ea898a-0c22-40ad-83ca-6e8753df924c,trek,BORMIO SKI & BIKE DI DANILO,46.46948,10.36967,Italy,"VIA STELVIO, 19 BORMIO , 23032 Italia",,0342911142,
962697a9-47d5-464f-9e0d-470eb0f54ea1,scott,ALTICOOP VTT,43.7137843,7.258241,France,"RUE PARMENTIER 9, NICE, 06100",www.alticoopvtt.com,+330493986828,alticoopvelo@sfr.fr
0ff25469-9323-4cb0-9eb9-1851f7777408,ghost,Hbzero,45.823383,10.106986,Italy,"VIA CESARE BATTISTI 61, COSTAVOLPINO (BG), 24062",www.hbzerobike.it,0039035752607,info@hbzerobike.it
0134db7d-9579-45cb-b340-d4edd334d4e4,gt,DF Sport Specialist Milano,45.4966828,9.2355996,Italy,"Via Palmanova 65, Milano (MI), 20132, IT",www.df-sportspecialist.it/df-sport-specialist-mila,+39228970877,
3076c4a6-1a97-4f7e-84dc-86c16bbf1d2d,ktm,OVELO CHAMBERY,45.619429,5.8877385,France,40 rue de la Françon 73420 VOGLANS,www.ovelo.fr,tel:0986712628,chambery@ovelo.fr
8a98c59f-992f-43b7-bf45-6b44b1adb31c,giantliv,GIANT LYON SAINT PRIEST - CYCLES BLAIN SAINT PRIEST,45.7162962,4.9605274,France,"218 ROUTE DE GRENOBLE, 69800 ST PRIEST",www.giant-lyon-saint-priest.fr/fr,0472477311,saint-priest@cycles-blain.com
2cb63039-bf26-44fa-a915-f705dff3369e,giantliv,Cicli Bandiziol di Bandiziol Mauro,46.018993,12.8753522,Italy,"Via Provinciale 5, 33098 S. Martino al Tagliamento , PN",www.ciclibandiziol.it,+39043488159,info@bandiziol.it
20cb399c-29d3-40a9-afa9-3eef2245e64b,kalkhoff,Station bee s Clermont ferrand,45.7689042,3.0032934,France,"92 route du Puy de dome, Orcines, 63870",www.bee-s.fr,,sourcing@bee-s.fr
99ddd219-2914-47db-8ef4-099f97382b0a,scott,CULTURE VELO SAINT ETIENNE,45.443877,4.4263444,France,"IMPASSE COTE THIOLLIERE 2, SAINT ETIENNE, 42000",www.culturevelo.com,+330477251137,42saintetienne@culturevelo.com
116a56ae-d9df-4203-93fa-4a87591688b1,scott,CULTURE VELO AGEN,44.1833333,0.6220931,France,"AVENUE DE L ATLANTIQUE, AGEN, 47000",www.culturevelo.com,+330553480818,47agen@culturevelo.com
9ee7f0c3-d365-4fc6-9b2f-ee34cf4d73df,mongoose,Sportler S.p.A. - Peschiera Bike,45.4367527,10.7082163,Italy,"Via località Mandella 12, Peschiera del Garda, 37019, IT",,+39458531648,
09a747b7-456d-417d-94af-ed2ef6fbabf6,giantliv,Cicli Soprani di Soprani Alberto,44.9154306,10.8071271,Italy,"via Amendola 64, 42046 Reggiolo , RE",,+390522971254,reggiolo@ciclisoprani.it
af228eb7-58d0-4c09-8e0f-c4de45f2d3d6,gt,MYTHIC DISTRIBUTION SARL (BMX only),48.674061,5.8867624,France,"15 rue Thiers, TOUL, 54200, FR",,+330681394053,esprit-bmx@orange.fr
721d1307-8ef2-4744-b848-cf0159c4d71b,scott,CULTURE VELO VILLEBON SUR YVETTE,48.7017921,2.2558299,France,"AVENUE DE LA PLESSE VILLEBON 2, VILLEBON SUR YVETTE, 91140",www.culturevelo.com,+330169310104,91villebon@culturevelo.com
4ec86ceb-1d76-45ac-9b22-96fcc03e337f,focus,SMART EMOTION DI FIANDO ANGELO,44.9827623,7.737007,Italy,"VIA ODDINO MORGARI, 17 TROFARELLO 10028",www.smartemotion.it,+393395024493,afiando@smartemotion.it
71d52325-4ee9-4e83-9383-3797f825faf3,gt,CAPSULE CYCLES (BMX only),50.2976472,2.7321802,France,"18 RUE DIDEROT, ARRAS, 62000, FR",,+3303.21.71.03.67,capsulecycle@orange.fr
377e317c-c39c-447a-9c19-a10bea43922b,scott,BARRO S BIKE DI BARRO DAVIDE,45.8535941,9.3647955,Italy,"VIA PRIMO MAGGIO 6 8, GORLAGO, 24060",,,
28d353e6-e9a1-4265-bdbf-abf8aaa5d047,cannondale,4 Elements Bikes,42.92070322,10.75717625,Italy,"Piazza 25 Aprile, 9, Follonica, 58022",,056640531,
e5a72dd6-7b34-4df2-91e1-9aaf415f4087,superior,Joris Boillat Cycles Sàrl,47.2243,6.95638,France,"Rue du Marché, Le Noirmont, 2340",,+41325210786,boillatjoris@gmail.com
a7687848-b37e-454e-bf80-d9ee7875aaa2,superior,INTERSPORT ST QUENTIN,49.8617,3.25643,France,"Rue des Marlettes, Fayet, 02100",,03.23.50.39.20,anne@groupe-prosport.com
7648dfce-633e-49eb-bac5-e89724a5728d,gt,MORAND Yoann / RIDE SPORT (BMX only),45.5880274,4.8787536,France,"134 rue du verdier, maison numéro 5, CHUZELLES, 38200, FR",ride-sport.fr/,,ridesport@yahoo.fr
3ec0e8d2-4331-45c2-9b27-b692d55c70d4,cannondale,Sportissimo,44.77643305,10.88439557,Italy,"Via Lama di Quartirolo, 21, Carpi, 41012",,059663136,
a7b347b2-7734-4b6f-851f-d7ed0c0445bb,focus,MONFERRATO BIKES,45.058903,8.251172,Italy,"VIA VIRO IN COLLINA, 11 MONCALVO 14036",www.monferrato.bike,+390141917467,info@monferrato.bike
afcd7e5e-9964-45cf-be3d-f13063349bd8,cannondale,Motoland,49.9112468,2.3367152,France,"218 Av. de la Défense Passive, Rivery, 80136",,0322712020,
34e630ff-ae60-4201-a9e1-e01e541f87b7,gt,MDV67 / Mondovelo (BMX only),48.5214818,7.692669,France,"1 rue du fort, GEISPOLSHEIM, 67118, FR",,+330388554433,mondovelo.strasbourg@orange.fr;atelier.mdv67@gmail.com
34263fd7-e9c9-4761-9819-1e813fcb1895,scott,BICIMANIA - LISSONE,45.6304263,9.2244503,Italy,"VIA NUOVA VALASSINA 86, LISSONE, 20851",,+39392144238,lissone@bicimania.it
7d8df5d6-5f2a-4b1b-b209-e6076468aeef,gt,CYCLES PIERRE PERRIN (BMX only),48.5812737,2.2279495,France,"10 Avenue d Arpajon, EGLY, 91520, FR",,+330164901077,cyclespierreperrin@wanadoo.fr
21092842-54dd-482f-a7cf-3c5709b89b0d,ktm,SARL SAINT POURCYCLES,46.3073413,3.2921976,France,9-11 Rue Paul Bert 03500 SAINT POURCAIN SUR SIOULE,www.akeonet.com,tel:+33470453488,sarl.saint-pourcycles@akeonet.com
48372cfa-3ec3-4380-902d-bc29507d2899,haibike,VELO NATUREL,48.58458,-1.13263,France,"ROUTE D´AVRANCHES - LES ÎLES, 50600 ST HILAIRE HARCOUËT",,+33233512944,velonaturel@orange.fr
24a8fb36-a5d9-4d85-b2dc-bbd843b3cfa0,ghost,Bentec Green Power,41.707237,15.722191,Italy,"Piazza Europa 86, San Giovanni Rotondo, 71013",www.bentecnology.com,+390882450266,danilo.palladino@ebikepassion.com
9b0d59cc-962a-45ad-bb67-a90a23a11529,scott,ADRENALINES BIKES,48.0424214,7.1551368,France,"RUE DES ARTISANS 15, MUNSTER, 68140",www.adrenalinebikes.fr/,,adrenalinebikes@hotmail.fr
7b8e18b6-f5e4-4638-8f00-3bb3ec697af1,trek,BIKELAB DI FORTUNATI,41.93915,12.53581,Italy,"VIALE ADRIATICO, 54 ROMA , 00141 Italia",www.bikelabstore.com,068184538,
b6608d59-fc35-49bf-ba56-00a192c990fe,ktm,VELOZEN,47.982406,-4.0751036,France,28 avenue de Ty Douar 29000 Quimper,www.velozen.com,tel:+33682025649,quimper@velozen.com
f2a93ed1-3eed-479f-b550-09c53d247c71,trek,Bernaudeau Cycles Les Sables D Olonne,46.4838973,-1.7265105,France,"avenue de Talmont Les Sables d Olonne , 85180 France",www.bernaudeaucycles.fr/,0285294826,
46e699eb-cc3f-4478-b284-dc34ef9fc56f,scott,MONDOVELO SAINT LANGIS LES MORTAGNE,48.5249279,0.5360779,France,"ROUTE D’ALENCON, ST LANGIS LES MORTAGNE, 61400",www.mondovelo.fr,+330233732098,mondovelo.stlangislesmortagne@gmail.com
422b3f71-43d5-4588-8614-1d7fb89c6ae2,superior,INTERSPORT AMIENS NORD,49.8658,2.37117,France,"POLE JULES VERNE - SECTEUR 1ne, Glisy, 80440",,03.22.38.06.83,ope-amiensnord@groupe-prosport.com
b357aac0-1707-41ae-84e6-600544222473,scott,VILLEBENOIT SUD AVALLON,47.4994739,3.8971415,France,"RUE DE LA GRANDE CORVEE, AVALLON, 89200",,+330386341292,s-chauvot@groupe-villebenoit.fr
3ef135f4-811f-4232-978d-09213e916476,ktm,SAS ARIANE CYCLE,48.9130206,2.2724443,France,29 rue des Bourguignons 92270 Bois Colombes,www.we-cycle.fr,tel:+33782021562,ericmenard@we-cycle.fr
5431a6ae-1388-4531-bcb9-f5030fb7d273,trek,ROSSIGNOLI,45.4750174,9.1833064,Italy,"corso garibaldi 71 , via solari 40 Milano , 20121 Italy",www.rossignoli.it,02804960,
a8f4b6ce-f290-48ee-afd2-d5ad27a27809,gt,DF Sport Specialist Lissone,45.6002889,9.2370283,Italy,"Via Nuova Valassina 86, Lissone (MB), 20851, IT",www.df-sportspecialist.it/df-sport-specialist-liss,+39392454390,
29415fa2-0205-4a19-8cdd-76c2d1cb8021,giantliv,GIANT SAINT BRIEUC - SARL SAINT BRIEUC VELOS,48.496091,-2.731871,France,"1 RUE DES GRIGNONS, 22360 LANGUEUX",www.giant-saint-brieuc.fr/fr,0296700691,saintbrieuc@velogiant.fr
cb00396a-0640-4886-bd2d-d7c224257f63,haibike,ATELIER DU VELO,44.82039,-0.58357,France,"27 COURS GAMBETTA, 33400 TALENCE",,+33556360937,atelierduvelo@gmail.com
fc1c73a9-9ad1-4a19-8d22-671580b23a88,trek,Intercycle,49.1738087,-0.328076,France,"9 RUE EMILE ZOLA MONDEVILLE , 14120 France",www.intercycle.fr,0231700382,
db88b2ef-c93a-47d1-8e33-64dc86f4f803,gt,MONTI HOLDING / BIKE PLUS (BMX only),43.9591684,4.7451362,France,"150 Avenue Grand Angles, LES ANGLES, 30133, FR",,+3304.32.70.72.27,bikepluslesangles@gmail.com
576bb5bb-9001-4b66-a5da-abbda458b992,trek,RODEZ BIKE,44.3712988,2.5691014,France,"45 Avenue des Cygnes ONET LE CHATEAU , 12850 France",,0565680169,
a8f89447-5cab-4c14-988b-0c29c9f8eefd,kalkhoff,Ecox Sud Loire,47.1905206,-1.5214314,France,"82 route de Clisson, Nantes, 44200",www.ecox.fr,+33253352094,nantes.sud@ecox.fr
329aab2e-8d2b-4287-9a1b-124677d17cd8,trek,BETTINI BIKE SNC,46.13509,12.19985,Italy,"VIA FELTRE 264 BELLUNO , 32100 Italia",www.bettinibike.com,0437948522,
59d1516c-0e9c-49c7-b5ff-2a914387db5c,scott,CICLI ROSSI S.R.L.,45.6313329,11.5713313,Italy,"VIA GIOVANNI PASCOLI 38, POVOLARO DI DUEVILLE, 36031",,+390444590781,info@ciclirossi.it
4cddac2c-826b-4d10-83e6-983bf6894ad4,gt,RAYMOND Sébastien (BMX only),45.445921,4.5894,France,"La Jacotte, LA TERASSE SUR DORLAY, 42740, FR",,,
5f7f7bcc-daf6-4341-bebd-e996d638815a,trek,ENDUR CYCLES,47.16588,-1.269911,France,"10 boulevard D alcester Vallet , 44330 France",endurcycles.fr,0251790159,
8591687f-cce4-4bf9-ac87-7e2e6d746952,cannondale,DF Sport Specialist,45.62917476,9.01589148,Italy,"Via del Malnino, 5, Fusetti, Gerenzano, 21040",,0209997330,
65dd345c-0c05-4cb0-b926-1c325bd0c5d6,scott,BIKE SPORT,48.1078167,-1.6135215,France,"RUE DE BRAY 44, CESSON SEVIGNE, 35510",www.bikesport-cesson.fr,+330299227915,bikesport.cesson@gmail.com
d1549a59-528c-4747-b86e-f26e1dd56ae6,ghost,Bike & Ski Service,46.12333,11.116265,Italy,"VICOLO DEI PORTONI 3, MEANO (TN), 38121",,00390461961644,stefano@bikeservicetn.it
d1adc2dd-51f0-42a7-a258-9ecfda3e5b84,ghost,Cyclo Service,45.085192,7.409838,Italy,"VIA GENERALE DALLA CHIESA 7, AVIGLIANA (TO), 10051",,00390119348016,cycloavigliana@gmail.com
6e14cdde-b8fb-49d7-a367-8210266c1a18,scott,SPORT 2000 VOIRON,45.3883946,5.5745316,France,"RUE LOUIS LEPRINCE RINGUET, VOIRON, 38500",,+330476668990,velo@gozzi-sport2000.com
0268eb2a-c5d8-459c-920b-b50673742017,gt,Culture velo agen,44.1822222,0.6202778,France,"Avenue l atlantique ZAC Agen sud, Agen, 47000, FR",,+33553480818,
60a95e0f-7d72-4bb6-8b38-031c91c8b0f5,trek,PACINI DUILIO DI DAVID TOMADA,43.8715331,11.1001078,Italy,"VIA BALDANZI, 28 PRATO , 59100 Italy",www.ciclipacini.it,057421257,
d0572727-5fa9-488e-9c59-3e84d5242c42,kalkhoff,Vert-Event Angers,47.4808885,-0.5432986,France,"49 Avenue Jean Joxé, Angers, 49000",www.velo-horizon.fr,+330272725444,denis@velo-horizon.fr
4a2fdbe3-b783-4137-b3d2-d1fe0ca0eaef,giantliv,Bike Store Firenze srl,43.7731202,11.2066875,Italy,"Via Bezzuoli, 14, 50142 Firenze , FI",www.bike-store.it,+390550681787,bikestore.firenze@gmail.com
d633d12c-ad6d-484c-8f12-fac6179cf60e,cannondale,La Cyclerie Café,46.57576309,0.32908539,France,"60 Bis Boulevard de Pont Achard, Poitiers, 86000",,0549881325,
cc41e859-4094-46eb-aa8b-3e0237ba7db8,cannondale,CICLI DAL ZILIO,45.776527,12.05322592,Italy,"Via Piave, 34, Montebelluna, 31044",,+393457815102,
adff8dcb-56a8-49cd-a58b-268efa652901,scott,MOREL SPORT,45.5106174,2.8559447,France,"RUE DES LOUTRES, SUPER BESSE, 63610",www.morelsport.com,+330473796223,contact@morelsport.com
d0067c29-05f2-4d02-b8bd-6cc9692f6f50,scott,FANCELLO CICLI SPORT SAS,40.9297152,9.4973713,Italy,"VIA GALVANI 76, OLBIA, 07026",,+39078950388,fancellociclisport@gmail.com
765cf56c-eae9-45f2-b862-395f37ee2396,haibike,Cyclable Annecy,45.90337,6.12864,France,"6 rue de Bonlieu, 74000 ANNECY",,+33456739771,annecy@cyclable.com
fb8e7565-3b8c-4311-80af-e911de12c34c,mongoose,Culture Velo CV Lattes,43.5837938,3.9337686,France,"Avenue Marcel Pagnol, Lattes, 34970, FR",,33467222399,
4ce191be-ed26-4ec2-bba4-e812987ac662,gt,BROS / BROS BIKE STORE (BMX only),45.7501026,4.838817,France,"68 RUE DE MARSEILLE, LYON 7E ARDT, 69007, FR",www.brosstore.fr/,+3306.85.17.58.97,fabien@brosstore.fr;robin@brosstore.fr
222e0762-91b5-4f96-851a-84f8a322c0e1,trek,CULTURE VELO ANGLET,43.49644,-1.498462,France,"91 RUE DE LAMOULY ANGLET , 64600 France",www.culturevelo.com,0559579903,
8a153740-768f-4a9e-8598-59893c5c2ca9,cannondale,Sprint,45.60602747,4.06897667,France,"1 Boulevard Gambetta, Montbrison, 42600",,0477583504,
80f380f0-7400-4c62-b37d-9bd90aa42d8b,ktm,CYCLES AIX PERTS,45.722225,5.922173,France,"126, Chemin du Moulin 73100 GRESY SUR AIX",,tel:+33479355976,cyclesaixperts@gmail.com
bd827b02-6870-434c-8789-7f8a9df9d49b,trek,MATERIEL VELO NANTES,47.2577576,-1.4592018,France,"200 RTE DE THOUARE SAINTE LUCE SUR LOIRE , 44980 France",www.materiel-velo.com/a208-magasin-materiel-velo-nantes.html,0972808284,
b8454e61-be56-408d-b5f3-7ed177d2165e,superior,INTERSPORT CREIL,49.2414,2.46932,France,"ZAC DU BOIS DES FENETRES, Saint-Maximin, 60740",,03.44.27.38.00,directeur-creil@groupe-prosport.com
d67ca9cc-0d7e-4061-99f6-3528a27e5799,superior,MATERIEL VELO,46.0781,4.79462,France,"956 CHEMIN D AMAREINS, FRANCHELEINS, 01090",,0983731481,international@materiel-velo.com
d599a1c4-e1ee-48bb-b373-33d6b650122f,cannondale,Cycleworks,47.99228925,-4.08064875,France,"90 Av. de la Libération, Quimper, 29000",,0298640393,
5b6b004d-0d9f-41de-9738-088ad3228b80,cannondale,BIKESPACE,40.96719647,17.11169816,Italy,"Via Benedetto Croce, 9, Conversano, 70014",,3533898431,
a24b55be-a368-4488-a1e4-58f3074e62e2,haibike,CYCLES FEUTRIER,44.16981,0.69841,France,"703 ROUTE D AGEN, 47240 LAFOX",joel-feutrier.fr/,+33553670376,comptabilite@expercycle-feutrier.fr
8917dba9-7132-4b55-8768-22b021f1a057,gt,CULTURE VELO/ CYCLES BERAUD (BMX only),43.4274641,6.7492071,France,"7 rond point de la Gendarmerie, FREJUS PLAGE, 83600, FR",,+330494512020,patrickberaud@hotmail.fr
13b358fb-38c0-4e6f-bd86-aaa546e851fa,cannondale,Automobili Cocco,39.14064128,8.51096139,Italy,"S.S. 126 KM 12.070, Carbonia, 09013",,0781660325,
80a4aa05-f6d0-4a0d-b00d-7729bfe919cc,haibike,RS CYCLES,43.66714,4.63422,France,"5 RUE FRANCOIS MESNIER, 13200 Arles",,+33490499402,marie-claude.besse2@wanadoo.fr
fc4df690-52b5-49ed-9d9d-84d0b3d8720d,focus,ERREDI BIKE DI MASSIMO RAVA & C. S.A.S.,44.9098537,8.6206318,Italy,"CORSO ALFONSO LAMARMORA, 56 ALESSANDRIA 15121",www.maniabike.eu,+39013156114,info@maniabike.eu
cc043fd9-6a67-4de7-8cb9-f2c33afb5ed9,ktm,SAS 100% CYCLES PHILIPPE,43.4273403,6.7788036,France,330 Bd jean Moulin 83700 SAINT - RAPHAËL,,tel:+33494955691,100cyclesphil@gmail.com
b74f110c-425e-4a1e-9b5f-3bbea1803788,scott,BIKEADVENTURES DI VALSESIA DINO E N,45.6988,8.4682,Italy,"VIA MATTEOTTI 52, BORGOMANERO, 28021",,+390322068651,balto67@alice.it
47107c79-4afc-4234-bc47-9e3e5c3bd74c,scott,CULTURE VELO SOYONS,44.965,4.8481,France,"ZONE COMMERCIALE LES FREYDIERES, SOYONS, 07130",www.culturevelo.com,+330475404208,07soyons@culturevelo.com
0eeab021-137b-42d7-a9ef-b4be0f9d2dbf,scott,NEXT BIKE S.R.L,42.1543157,12.6561109,Italy,"VIA ANTONIO GRAMSCI 39, FARA IN SABINA, 02032",,+390765487278,nextbikeshop@gmail.com
5170235e-c8d8-49e1-9840-6daf8cd048a0,scott,LUCHON MTB,42.7921005,0.5911728,France,"PLACE DU COMMINGES 4, BAGNERES DE LUCHON, 31110",,+330561798856,jf.barta@orange.fr
f622dd96-a620-404c-b160-55d827a80be9,ghost,Mike s Bikegarage,46.644634,11.357055,Italy,"DICKERWIESEN 48, SARNTAL (BZ), 39058",www.mikes-bike-garage.it,00390471622353,bike.garage@yahoo.it
290cf144-935a-4216-9b00-71064bb1623c,trek,CICLI GIORGIO SNC,44.8364197,8.067963299999999,Italy,"VIA ASTI, 12/A SAN DAMIANO D ASTI , 14015 Italy",www.cicligiorgio.it,0141975393,
b078b155-586f-4913-aa44-f293f2cba5b2,trek,AU TOUR DE FRANCE- CAMELLINI,43.70541,7.333808,France,"36 BD LECLERC BEAULIEU SUR MER , 06310 France",,330493010451,
32049ecd-cfb5-4386-9d36-844e2e14089b,giantliv,NEW JOLLY SPORT SRL,45.0540648,7.6758374,Italy,"Via Nizza, 53, 10125 Torino , TO",,+390116507553,d.viglietti@vigliettisport.com
836e54fd-1640-448e-8a9a-1b0654d57a77,cannondale,PMK Group,44.69666652,7.65966735,Italy,"Via G. Marconi, 131, Marene, 12030",,172742252,
05f827b5-6adf-4850-afde-b7eb90225a49,haibike,AUBRAC ELECTRO VELO,44.55378,3.29248,France,"26 BOULEVARD DE CHAMBRUN, 48100 MARVEJOLS",,,aubrac-electro-velo@orange.fr
5fd5da79-47b4-42d0-984b-b07a9de844a1,cannondale,Rout Evasion,41.93600139,8.75106566,France,"8 Av. Docteur Noël Franchini, Ajaccio, 20090",,0495227287,
127347f5-da34-4e51-9630-d97c0de08e2a,giantliv,MEROLA GROUP S..R.L.,41.076787,14.2814654,Italy,"Via Appia 15, 81040 Curti , CE",,+390823843757,merolagroup@gmail.com
9b38cfa2-3348-4051-a035-0a6b423d899c,cannondale,BikeStore Bassano,45.76669647,11.73021778,Italy,"Viale Armando Diaz, 22, Bassano del Grappa, 36061",,3487404890,
f29bf2ca-4ae8-47de-abd2-b39742975516,focus,NC RIDETECH DI NICOLA CICERI,45.772712,9.8133,Italy,"VIA PROVINCIALE, 92A ALBINO 24021",www.ncridetech.com,+393338349542,nicola@ncridetech.com
b884e956-8c75-42bf-ad9a-ef058c5e80b0,scott,NAPOLIBIKE SAS DI L.CAPUTO & C,40.8563,14.2464,Italy,"VIA RIVIERA DI CHIAIA 201, NAPOLI, 80121",,+39081411934,napolibike@gmail.com
b3d0a042-bbf2-4f8b-865b-f4a6261a8c7f,trek,$BIKE GREEN GROUP S.R.L.S.,39.20516,9.137011,Italy,"VIALE A.DIAZ, 194 CAGLIARI , 09126 Italia",www.bikegreenshop.it,0707568451,
66ed75f7-8540-459d-86b8-a8524ff04dcf,kalkhoff,Velotopia SARL,46.2575999,6.1118678,France,"28 Avenue Voltaire, Ferney Voltaire, 01210",www.bouticycle.com,+3333485290045,01ferney-voltaire@bouticycle.com
c76227d9-5a42-4946-9c94-38d31322ad41,scott,F.LLI LOVATO SRL,45.4011182,10.9786812,Italy,"VIA FLAVIO GIOIA 7, VERONA, 37135",,+390452051070,shop@lovbike.it
87cc79ce-3942-4ae4-870b-7d9738ad5e88,trek,BIKE SHOP LUNEL,43.68089,4.147706,France,"110 RUE DU LEVANT LUNEL , 34400 France",,0967625786,
f5dd3204-c01a-4a2c-ad26-7fdefb68e0e8,mongoose,Sportler S.p.A. - Trento,46.067965,11.1239065,Italy,"via Mantova 12, Trento, 38100, IT",,+39461981290,
9d90ccbf-bf4c-4039-a20c-e1161c5d60e6,gt,CYCLES NADIA TRIQUET (BMX only),48.2752793,6.9643749,France,"521 rue Ernest Charlier, STE MARGUERITE, 88100, FR",,+330329555609,contact@cycles-triquet.fr
6bf4510f-b2cf-4c5d-a2a1-2dff26f2b39e,haibike,GLISSE URBAINE,48.88028823573381,2.293865789954001,France,"31 RUE BAYEN, 75017 PARIS",,+33180875120,kevin.lerich@gmail.com
4aa9b26c-5b87-4357-8fd1-e309eb8c665a,trek,Cicli Bonadei,45.8778331,9.9755896,Italy,"Via Capitanio 5 Rovetta , 24020 Italy",,034671951,
83e8df53-7ec6-4772-be6e-e76f707deccd,scott,MSA ARABBA,46.2714,12.0057,Italy,"VIA MESDI 56, ARABBA, 32020",,,msa.arabba@gmail.com
e7e5653d-dbee-4d25-b79e-d273b30a7c18,kalkhoff,Cityzenbike SARL,48.5850184,7.7408606,France,"rue du fauboug de saverne 4, Strasbourg, 67000",www.cityzen-bike.com,+33388750153,contact@cityzen-bike.com
422d04ac-fbfc-4f09-9760-d39854381860,trek,GERMIGNAGA SPORT SAS DI M. GALLI & CO.,45.99442,8.727925,Italy,"p.zza XX settembre 37 GERMIGNAGA , 21010 Italia",www.germignagasport.com,0332510111,
06e28f2f-ea71-4155-b995-e631e051fd71,ktm,DI FRANCESCO GIOVANNI,42.8030935,13.9422976,Italy,"VIA PASCOLI, 7 64018 TORTORETO LIDO (TE)",,,gdf64tortoreto@gmail.com
f96a2998-6fd9-4652-8c59-fe75c35fbcf1,cannondale,Culture Vélo Boulogne-Billancourt,48.8249453,2.2376781,France,"63 All. George Askinazi, Boulogne-Billancourt, 92100",,0184193760,
1df2144e-5f3b-4956-acca-0b9626de93d6,scott,MONDOVELO BEZIERS,43.3515706,3.2525243,France,"RUE DE L INDUSTRIE 39, BEZIERS, 34500",,+330499415644,mondovelo.beziers@orange.fr
5d2cc2cb-9606-459c-a1c8-9e0b2200d865,cannondale,Star-Bike Di Canciani Gilberto,46.27263162,13.12405652,Italy,"Via Taboga, 100, Gemona, 33013",,0432971893,
f97b87ec-4c22-4883-84a3-b242379d1e6c,haibike,ESPRIT VELO PAYS BASQUE,43.35003150734718,-1.617812651477266,France,"CHEMIN XORIEKIN, 64310 ASCAIN",,+33559245423,slalanne@cycleslalanne.eu
230d177f-f282-44e4-b332-ef0db43a296a,cannondale,Bicipedia,43.78017265,11.41702057,Italy,"Via Luigi Einaudi, 6/B, Sieci, 50065",,0558328562,
79c3aae4-d672-4590-a8f7-91de44818a04,scott,DEAMBROSIS SRL,45.1034878,8.3173687,Italy,"VIA RICCARDO GUALINO 1, CERESETO, 15020",,,
c4843fad-8ee6-4096-99ee-23f62c53787e,ktm,CICLI PERACCHI,45.8122495,10.0265914,Italy,Via Lombardia 22 24060 SOVERE,,tel:035979233,cicliperacchi@gmail.com
29312d95-3751-4a6e-bec7-58ec8ab23c06,ktm,SARL RBM,45.1547563,1.5132248,France,128 AVENUE PIERRE SEMARD 19100 BRIVE LA GAILLARDE,,,remibenedetto@yahoo.fr
cc1e4728-c42a-4c02-bbac-5423a2fa1d61,haibike,Les Velos de Fratello,45.73507005409633,4.786810939900361,France,"8 Rue Sainte-Barbe, 69110 SAINTE-FOY-LES-LYON",,+33981696278,fratello@lesvelosdefratello.com
223f5a01-6afd-4d55-b409-4ba9782c8467,giantliv,CICLI BOSCARO DI BOSCARO MAURIZIO,45.1002144,7.5536277,Italy,"Via Piave, 42, 10044 Pianezza , TO",,+393517700127,info@cicliboscaro.it
94667c27-7fe3-4324-9ae0-d2dcdd6ee796,cannondale,BASSIN-SCOOT BY LOCABEACH,44.62149543,-1.13413897,France,"679 Av. du Parc des Expositions, La Teste-de-Buch, 33260",,0557153030,
8182b16a-2959-4dab-8a2d-908756b7f35a,kalkhoff,Station Bee s Cadenet,43.7343435,5.3749597,France,"12 place Mirabeau, Cadenet, 84160",www.bee-s.fr,,sourcing@bee-s.fr
b2bc3b77-b970-4a01-b023-83c4fec9d2da,gt,JADE R CYCLES SERVICES (BMX only),47.2634821,-2.1488699,France,"8 Impasse des Piautres, ST BREVIN LES PINS, 44250, FR",,+3306.18.50.28.50,jadercyclesservices@gmail.com
57f9e5d4-66e7-4a8b-a26a-04b34ca3363b,trek,Culture Vélo Buchelay,48.98915474464438,1.676876561376952,France,"1 Rue de la Dordogne Buchelay , 78200 France",,0134977815,
809ff631-99c6-4797-ac4b-eca9f6dd91c3,scott,FUN SPORTS CYCLES,43.2078322,2.3807571,France,"RUE JEAN MONNET 16, CARCASSONNE, 11000",www.funsportscycles.com,+330468716706,contact@funsportscycles.com
95f63472-0393-433f-a5f2-7b04b1238c05,mongoose,Intersport Brives-Charensac,45.0488112,3.9153349,France,"28 Route de Coubon, Brives-Charensac, 43700, FR",,33471055152,
9ec1a5ff-ddcc-4e02-aea5-57a33dfcbcd8,focus,UNIKABIKE,45.4681718,9.1611014,Italy,"VIA MARIO PAGANO, 67, MILANO 20145",www.unikacycling.it,+390291637069,info@unikacycling.it
dd217d86-ff05-4740-a6f4-dc25f02b9968,cannondale,Lvr Cycles,43.3443991,3.23285813,France,"271 Rue Claude Nougaro, Béziers, 34500",,0467371752,
0f8ce3d2-1fff-478e-adae-f180391758f4,gt,ALPIN BIKE/VELO EPAGNY (BMX only),45.9391574,6.0799182,France,"48 RUE E LA MANDALLAZ, EPAGNY, 74330, FR",,+3304.50.22.06.56,annecy@alpinbike.fr
3e9d8e2d-569f-4280-81df-99155d748843,mongoose,Top Cycles,43.5983116,7.0925761,France,"1630 Chemin des combes, Antibes, 6600, FR",,33493740803,
6f6552c7-5180-4ae6-8103-73a683fae44a,kalkhoff,ECOX Domaine de Saint Paul,48.6938171,2.0619435,France,"102 route de Limours, Saint-Rémy-lès-Chevreuse, 78470",www.ecox.fr,,laiguillage@ecox.fr
fb5bc003-5c89-4f63-9c78-8479a029a956,superior,ENERGIE VELO,50.4764,3.23431,France,"ZAC de l europe, Orchies, 59310",,06.59.28.82.12,energievelo@gmail.com
c6e9c0da-c0d0-41a5-bf7b-2f95ac5f35fb,superior,BEECYCLETTE,47.3032,5.03866,France,"29 Rue des Rotondes, Dijon, 21000",,0652214972,contact@beecyclette.fr
56e7f981-a8ef-4ced-adf6-84893dec3054,scott,OLIVERO BIKES,44.3915454,7.5674378,Italy,"VIA SAVONA 39E, CUNEO, 12100",,+390171401293,info@oliverobikes.it
75e87d1f-b1a7-42e9-80e7-a1e01f789042,cannondale,SPORTLER Udine,46.10201235,13.22995055,Italy,"Via Nazionale, 20, Tavagnacco, 33010",,0432287284,
9795796d-9354-44b3-9444-1f7940287b54,superior,INTERSPORT VANNES,47.6624,-2.78636,France,"Zone Commerciale Kerlann, Vannes, 56000",,02.97.46.68.08,m.crusson@reseau-intersport.fr
7dda1a9f-9d47-41b8-a4d9-f7b4f7e9d503,trek,CYRPEO,43.58297,3.941671,France,"427 RUE HELENE BOUCHER MAUGUIO , 34130 France",,0467278772,
7da1784e-6c03-45b9-a144-eed30f478e6a,focus,HYMY Bike SAS,44.9057976,5.7853532,France,5 Grande Rue La Mure 38350,www.hymybike.com,+330972314279,gestion@hymybike.com
0ef96820-108e-4939-acbe-39cecfe6c782,focus,2SP MOTO DI SERGIO SOSSO E C. S.A.S.,44.7704205,8.0194124,Italy,"STRADA GORGHI, 7 CASTELLINALDO D ALBA 12050",,+3939172855,2sp-moto@libero.it
32c89ffc-a723-4088-9489-10088d127341,kalkhoff,Cyclable Champigny sur Marne,48.815128,2.4865681,France,"rue de Verdun 26, Champigny-sur-Marne, 94500",www.loisicycle.fr,+33688510781,contact@loisicycle.fr
195b85cf-5848-4d5a-8839-8252bb246338,focus,PIANETA BICI DI CORNELLI SEVERINO & C. SNC,45.5227573,9.7442138,Italy,Via Balilla 72 ROMANO DI LOMBARDIA 24058,,+390363901952,pianetabici@libero.it
0524d796-d0d1-4c88-98f6-50b876ff5398,superior,CYCLES THOMAS,48.1833,6.45,France,"1 ESPACE COMMERCIAL SAINT MICHEL, EPINAL, 88000",,0329326272,gthomas@cycles-thomas.com
ac90b7a7-1d27-4e90-adb1-92ce04319ca3,cannondale,Bernaudeau Cycles,46.74402976,-1.26558748,France,"Zone de la belle Entree, Les Essarts, 85140",,0251064787,
dfb4c226-d2e0-4974-95db-b4de102bfa9f,scott,MEGACYCLES LAON,49.5494835,3.6189673,France,"AVENUE GEORGES POMPIDOU 1134, LAON, 02000",,+330323202929,megacycles02000@wanadoo.fr
dfef601d-169f-4bc4-8a8f-5a2627fc8499,haibike,TELEMARK S.R.L.,45.83684808585281,7.731490614795126,Italy,"Route Ramey 73, 11020 Champoluc (AO)",,,telemarkskihire@gmail.com
66e348ab-98ed-4601-9636-b9e7a6c35bfd,haibike,GALLARDO CYCLES,44.076295,6.185425,France,"RUE DENIS PAPIN, 04000 Digne Les Bains",,+33492310529,gbikeshop@gmail.com
c1e23c81-6ad2-44bb-9c8f-e2660bb8f09d,kalkhoff,Cyclable Montgermont,48.1544171,-1.707659,France,"Rue de la Bagassière 3, Montgermont, 35760",www.cyclable.com,+330299452673,rennes-montgermont@cyclable.com
bd39ff63-1cd8-4092-8b8a-82396f634bec,cannondale,Giant Grenoble Saint Egreve,45.2219781,5.67336701,France,"27 Rue des Glairaux, Saint-Egrève, 38120",,0476459845,
ca5b7307-14dd-43ba-80d0-05b5bf3a63ff,ghost,Lamal Service,40.737189,14.642947,Italy,"Via Pietro de Concilis 24, NOCERA INFERIORE (SA), 84014",,00393332005449,lamalsevizisrl@gmail.com
6485a76e-3551-47a1-8261-181a7d115838,focus,SAS Cyclerie P.Rosse Sport,43.5352613,1.3998643,France,bis avenue de l Enclos 8 Portet-Sur-Garonne 31120,www.la-cyclerie.com,+330562876020,la.cyclerie@wanadoo.fr
969ac9a4-e48d-47e0-8211-373d0bf7d0c7,haibike,Le Velò S.N.C.,43.5152671417364,13.254403621374607,Italy,"Via Marconi 166 Bis, 60035 Jesi - (AN)",,+39071946484,leveloch@gmail.com
1f96d8f0-f9b8-48da-a15f-ac7c210cadb6,cannondale,CentroMoto&Bike,37.09983166,15.2720192,Italy,"Via Lentini, 84, Siracusa, 96100",,+390931753147,
ede0c298-36ec-45c7-8148-480e76f67d99,focus,TOP BIKE DI GAIARDELLI MASSIMO,45.522119,10.8361144,Italy,Borgo ai Cimieri 48 SANT AMBROGIO DI VALPOLICELLA 37015,,,antonella.girardi68@gmail.com
7527ccd2-6aa2-461e-a1e0-28f67e0752ae,focus,MAXENTSPORT SRL,44.6303558,10.6055136,Italy,"VIA VITTORIO EMANUELE II, 43 ALBINEA 42020",,+390522348535,a.maxentsport@gmail.com
a158e498-2d25-49ba-a2a3-5a2289c4efd9,trek,ANJOU BIKES DIFFUSION,47.47199,-0.620966,France,"21 RUE DU LANDREAU BEAUCOUZE , 49070 France",,0241733197,
fddae0e2-ea84-40e5-9573-062f5b185f7c,scott,BLUE BIKES LA CROIX VALMER,43.2006616,6.5755056,France,"64 BD GEORGES SELLIEZ, LA CROIX VALMER, 83420",,+330494797512,bluebikes@wanadoo.fr
7293e217-2658-4a7f-96e5-cbc67026792a,kalkhoff,Alternative EURL,48.1240498,-1.6848232,France,"Rue de Saint Malo 206, Rennes, 35000",www.cyclable.com,+330299131802,rennes@cyclable.com
52916f67-8304-4fbe-8f0f-9bcf8f89e581,giantliv,GIANT CORBEIL - SAS JOCE,48.6076249,2.4839702,France,"92 RUE SAINT SPIRE, 91100 CORBEIL ESSONNES",www.giant-corbeil-essonnes.fr/fr,0160891874,info@veloseine.fr
2bea45a1-5e6e-42a8-b2b8-e1420997fe24,trek,BICI MANIA SRL,40.72593,8.555683,Italy,"Z.I. PREDDA NIEDDA NORD STRADA 5 n.20 SASSARI , 07100 Italia",,079260154,
053e5821-c4dd-4b28-bfa5-6b1f8376138b,cannondale,The Bike Shop Le Port-Marly,48.8797343,2.1105767,France,"16Q Avenue Simon Vouet, Le Port-Marly, 78560",,0139173788,
a805e156-40fe-400d-a37d-3ddce6f066aa,superior,LA SQUADRA,41.7568,1.87097,France,"AVINGUDA BERTRAN I SERRA, 108, SANT FRUITOS DE BAGES, 08272",,935893170,lasquadra@la-squadra.cat
824ea594-8bd9-45c1-9b83-47a7e9128c92,gt,CYCLES BOYER (BMX only),46.6956891,4.3889806,France,"8B ROUTE DE MONTCEAU, BLANZY, 71450, FR",,+3303.85.68.00.02,boyer.blanzy@wanadoo.fr
7820b4d0-8c91-44f6-b94c-ca17f7573d34,trek,CULTURE VELO LOUVIERS /Georget Cycles,49.21066,1.172177,France,"1 boulevard postel LOUVIERS , 27400 France",www.cyclesgeorget.com,0232400622,
c6487447-faf6-48a1-a54b-f233eb9de904,mongoose,Cycles Routens,45.1811345,5.7863055,France,"2, rue Henri Duhamel, Gieres, 38610, FR",,33476896640,
de122f37-b9d8-4eb5-930c-ff11e982e3cd,focus,Velozen EURL,48.4125369,-4.4593024,France,Rue de l eau blanche 13 Brest 29200,www.velozen.com,+33298331524,contact@velozen.com
d45d0fd3-eea6-48fd-984a-0c13d54ffb6f,scott,SPORT 2000 MONDO SALON DE PROVENCE,43.4994057,4.974521,France,"RUE DE LA ROSE DES VENTS 8, ISTRES, 13800",,+330490442000,mondovelosalon@orange.fr
73bcb600-924f-4456-a67e-08740144e6fa,kalkhoff,Vélo Horizon,47.4824662,-0.5421843,France,"Avenue Jean Joxé 49, Angers, 49100",www.velo-horizon.fr,,anger@velo-horizon.fr
e260eded-0283-43e4-ad0f-06313a32b4a5,giantliv,GAI LIVIO SNC DI GAI LIVIO & C.,45.014117,7.8181353,Italy,"VIALE FASANO 3, 10023 Chieri , TO",www.cicligaichieri.it,0119471736,cicligaichieri@gmail.com
2a8cd2c9-6ee0-49f1-a5a5-ce2975dedd58,trek,EL CORIDOR SRL,45.89059,12.32792,Italy,"VIA ITALIA 67 SAN VENDEMIANO , 31020 Italia",,0438336787,
f38b0ea3-693f-4ec3-9d8a-17f21c9e6164,scott,QUAI DES CYCLES NOGENT SUR MARNE,48.8333,2.4833,France,"PLACE DU THEATRE 1, NOGENT SUR MARNE, 94130",www.quaidescycles.fr,,contact@quaidescycles.fr
27910901-7d17-47a1-8db1-6df46fdce04d,ktm,MAZZANTE MOTOR SPORT,42.4431057,14.2493647,Italy,"VIA NAZIONALE ADRIATICA SUD, 66/68 65129 PESCARA (PE)",www.mazzante.it,tel:0039085/690702,info@mazzante.it
bdd889c1-beb9-460e-b51a-a3dbd6c7c76a,superior,INTERSPORT SAINT CHAMOND,45.4602,4.48966,France,"ZAC DE VARIZELLE, Saint-Chamond, 42400",,04.87.54.00.80,f.chevignon@reseau-intersport.fr
2260ddc9-7be0-4213-bfb1-035b4f0b8075,focus,CICLOFFICINA ERRANTE,45.145086,10.802095,Italy,"VIA LUDOVICO ARIOSTO, 20-22 A/B MANTOVA 46100",www.ciclofficinaerrante.it,,info@ciclofficinaerrante.it
bfc15dd1-2a3f-4ed0-b7cb-11a42304aa67,scott,CICLO MOTO SPORT DEMURTAS,40.4122258,9.3694641,Italy,"VIA FRANCESCO CIUSA 39, NUORO, 08100",,+39078439050,vanni@ciclidemurtas.it
e9ae38e8-74ef-440c-aa0f-36ca428d43ff,gt,CYCLES VAL D HUISNE (BMX only),48.1866065,0.6485096,France,"Le Conti, LA FERTE BERNARD, 72400, FR",www.cycles-val-dhuisne-72.com/,+330243714444,cycle.huetvalhuisne@wanadoo.fr
aa8bca89-f36a-4e0c-8db4-a14b57820bcd,rockmachine,"DF SPORT SPECIALIST SPA, Centro Commerciale ""CREMONA PO""",45.1508,9.99798,Italy,"Centro Commerciale Cremona Po, Via Castelleone, 108 Cremona CR 26100",www.df-sportspecialist.it,0372458252,
e4bf89fb-22dd-4a6b-97dc-a800e9792bc0,kalkhoff,Montpellier Cyclable SARL,43.628709,3.8974739,France,"7 Place Charles de Gaulle, Castelnau le Lez, 34170",www.cyclable.com,+330974041770,montpellier@cyclable.com
905ad6f3-dd8c-450e-8bb8-662dad632cb1,gt,DISTRIBUTION CYCLES/ CULTURE VELO (BMX only),44.8168559,-0.5262546,France,"Zone Commerciale Auchan Bouliac, FLOIRAC, 33270, FR",,+3305.56.40.06.85,33bouliac@culturevelo.com
46b1e063-f2ec-40e5-8190-77fcf42a0a8b,trek,BASSIBIKE DI BASSI ANDREA,42.7627,11.12721,Italy,"VIA TEANO 20 GROSSETO , 58100 Italia",,056422796,
cbc7315e-915b-4214-9ac5-41dc9d131480,gt,BMX AVENUE (BMX only),43.6070099,3.8841649,France,"11 Rue Jeanne d Arc, MONTPELLIER, 34000, FR",,+3304.67.73.22.36,contact@bmxavenue.com;fafa@bmxavenue.com
0df79a51-8cc1-4478-bb8d-ac42a8524922,cannondale,G2Roues,46.0334489,4.058853,France,"34 Rue Georges Plasse, Roanne, 42300",,0477718573,
6df9649d-3071-4b3c-85e8-52d5e9c43c61,trek,LEPAPE CYCLE,48.87412,2.305578,France,"41 RUE D ARTOIS PARIS , 75008 France",www.lepape.com,0153750500,
e99c5843-27ef-4fc7-9c06-685ab877194d,kalkhoff,Wareega,48.6558333,-1.3548132,France,"Parc de la Baie, Le Val Saint Père, 50300",www.wareega.com,+330788486984,avranches@wareega.com
d4aeffc0-8878-49e1-b275-6d0585370c3c,cannondale,Ciclopoint,44.108348,9.831122,Italy,"Viale Italia, 51, La Spezia, 19124",,018721758,
d82428ae-8673-4807-a3c5-5219a008c915,kalkhoff,Galeries de Halles,48.8640528,2.3493599,France,"15 rue de Turbigo, Paris, 75002",www.veloactif.com,,info@veloactif.com
580f8460-0d2c-4ba7-bb75-cdaa7b065529,ktm,SARL MOUT´N BIKE MTGL.NR: 6195P,45.4820696,6.528632,France,328 Avenue de la libération 73600 MOUTIERS,,tel:+33479401635,moutnbike@hotmail.fr
08c25298-d5d1-42e0-a1b3-1b4185aa20f5,mongoose,Team Zola s.r.l.,45.5540917,8.058403,Italy,"V.le Macalle 24, Biella (BI), 13900, IT",,0158495588,info@teamzola.it
b14c4896-bba5-4769-b6c1-9d876d77c328,scott,X.TRABIKE,48.6513,4.8126,France,"COURONNE DE GIGNY 31 BIS, SAINT DIZIER, 52100",www.xtrabike.com,+330325050787,xtrabike52@orange.fr
8da9dd06-3013-47a6-8fe9-71d15c0dccb0,ktm,MIKI TOURS,45.77976,10.75006,Italy,Via Rocchetta n.20 25010 TrEmosine SUL GARDA (BS),www.mikitours.it,tel:00393398003239,info@mikitours.it
57c1ca66-e9d2-402d-8290-6a85933abd55,scott,VELO 02,49.0376218,3.3930584,France,"RUE DE CHAMPUNANT, CHATEAU THIERRY, 02400",www.velo77.fr,,velo02chateauthierry@gmail.com
6ddfa6d2-79df-4b96-a54b-897e310744e8,mongoose,Culture Velo Villeneuve dAscq,50.6316211,3.1533357,France,"Angle Rue J. Guesde, Villeneuve d Ascq, 59650, FR",,320560699,59vdascq@culturevelo.com
8ab3c29a-601b-42a1-8336-6ec587a38603,focus,Station Bee Robion,43.847006,5.105594,France,Allée du Canier ZA du Sablon Robion 84440,www.stationsbees.com,,robion@stationsbees.com
c663272e-b7f3-4155-90b4-4d51b2539b4e,focus,DG Sport & Cycles SARL,45.0603591,5.1066199,France,Av des Pins - Parc Saint-Paul A Saint Paul Les Romans 26750,www.mondovelo-romans.fr,+330682553383,gregdemon@mondovelo-romans.fr
53587327-7ebf-43db-bfcd-9c82e7fe7149,gt,M CYCLES / BOUTICYCLE (BMX only),45.6947607,4.8233204,France,"29 Chemin des Mûriers, PIERRE BENITE, 69310, FR",,+3304.72.39.26.96,69pierrebenite@bouticycle.com
8909460d-5165-4365-82d4-74b257ef2fb9,ktm,SAS FEUILLET CYCLES,43.5905603,3.9407467,France,57 rue de la Jasse ZA Fréjorgues Est 34130 MAUGUIO,www.ovelo.fr,tel:+33467687123,montpellier@ovelo.fr
58af076c-a013-41d8-a755-581cb774e338,gt,CYCLES AJP,43.5123606,5.427438,France,"835 Avenue du Club Hippique, AIX EN PROVENCE, 13090, FR",,+3304.42.38.09.29,ajpcycles@gmail.com
d35d6236-6b8d-4807-a88c-19b3e123ebce,kona,L ATELIER DU CYCLE,48.905827,8.047199,France,"1, rue du blond NIEDERROEDERN FR 67470",www.atelierducycle.fr,388053895,contact@atelierducycle.fr
cec57aa5-1684-44cd-b947-c5c0a348b41c,kalkhoff,Vélonaute Tassin,45.763973,4.7726103,France,"Place des 3 Renards 6, Ecully, 69130",www.velonaute.com,+33951098049,tassin@velonaute.com
dbaae7eb-d756-48dd-ad1e-a3d7cd85b615,gt,LE COIN DU VELO/CONTE PHILIPPE (BMX only),44.3618241,5.135918,France,"52 Av henri rochier, NYONS, 26110, FR",,+3304.75.28.40.68,phiconte@orange.fr
6e5f15e4-8606-47fa-b28b-b0eaccf215bd,giantliv,GIANT BRIVE LA GAILLARDE - SPECIALISTE VELOS,45.1445692,1.4715373,France,"ZAC DU MAZAUD RUE ARMAND SOURIE, 19100 BRIVE LA GAILLARDE",,05.55.87.19.02,specialiste-velos@hotmail.fr
58316cd8-e2f0-4668-bb97-0a09f6090e9f,scott,SPORT 2000 MONDO GIF SUR YVETTE,48.7014257,2.1021339,France,"ROUTE DE LA NOUE, GIF SUR YVETTE, 91190",www.sport2000.fr,+330164862084,pradal.sports@wanadoo.fr
023c967e-c015-46ab-a841-108947a99504,giantliv,Third generation di Roa´ Andrea,44.3887713,7.8215057,Italy,"via sant´Agostino, 12084 Mondovi , CN",,+39017446200,info@3rdgen-shop.com
4c92024a-7276-4feb-b185-34e99493a97a,ktm,ESPACE LOISIRS,48.0864806,-4.3389727,France,Boulevard Jean moulin 29100 Douarnenez,www.scarmor.fr,,nicolas.houart@scarmor.fr
80c7297f-97ff-42a4-9e17-239e5496d1eb,cannondale,Emicicli di Cecchetti Davide,43.3103446,10.51782246,Italy,"Corso Giacomo Matteotti, 194, Cecina, 57023",,3343925780,
d18372ef-808e-4e8c-b1f9-6e4399beecab,scott,DIEFFE BIKE S.N.C.,43.3516639,12.568103,Italy,"VIA LEONARDO DA VINCI 129 C, GUBBIO, 06024",,+390759271099,info@dieffebike.com
5748187d-f9fc-4adb-b28e-90e1064648a4,trek,Dvélos Aix,45.6523632,5.9121728,France,"Chemin de la Boisière Drumettaz-Clarafond , 73420 France",www.dvelos.com/,33479523541,
ce9697ce-53ea-4c15-8f9c-df6451166f93,cannondale,Bike Home,45.13435122,2.7445332,France,"Z.A du martinet Village d entrepris, Murat, 15300",,3471605229,
ac5ff241-d647-459f-8635-020cdac42e12,ghost,New Motor Bike,44.619896,10.672259,Italy,"VIA DEGLI ARTIGIANI 31, BOSCO DI SCANDIANO (RE), 42019",,00393388735960,info@newbike.it
aa7f5cda-9b02-438e-b0ad-41f3d023544b,scott,DAL ZILIO CICLI DI DAL ZILIO NICOLO,45.7797606,12.0633339,Italy,"VIA PIAVE 32, MONTEBELLUNA, 31044",,,info@ciclidalzilio.com
c2a5bca5-91e2-49ac-b6aa-7c2f60e652fa,gt,DF Sport Specialist Gerenzano,45.6311917,9.0153028,Italy,"Via del Malnino 5, Gerenzano (VA), 21040, IT",www.df-sportspecialist.it/gerenzano-va/,+39209997330,
10df84a7-257b-4374-887f-9fa7463f66b4,cannondale,Intersport,46.15730756,6.66830109,France,"268 Route du Front de Neige, Les Gets, 74260",,0450758642,
a0c0f969-aac3-499b-bd8b-c8d33b60b7f6,kalkhoff,C3C Mobility SAS,45.5243335,4.871782,France,"place St Maurice 3, Vienne, 38200",www.rhonavelo.fr,+330474877327,vienne@rhonavelo.fr
3c4fadda-bba2-4950-973a-b2f83e206033,cannondale,Cycles Pascal et Michael,43.88563719,-0.49878171,France,"149 Avenue du Président John Kennedy, Mont-de-Marsan, 40000",,0558752860,
82269981-a997-427e-9f9b-e83ff7581d86,trek,Velo Passion,16.258149260502076,-61.623434631738284,France,"Zone Dorville Dalciat Baie-Mahault , 97122 France",,0590684412,
e19534ed-2413-4f6a-b28b-9d31515943b7,trek,C.LES VELOS NANTES,47.23986,-1.591269,France,"187 ROUTE DE VANNES SAINT HERBLAIN , 44800 France",www.c-lesvelos.fr/,330240080101,
531752ef-2c47-48ef-aebc-aa156256c0f1,scott,CYCLO PLANET DI AMENDOLARA LUIGINA,40.66852,16.60159,Italy,"VIA ZANARDELLI 21, POLICORO, 75025",,+390835981332,cycloplanetpolicoro@gmail.com
6d86bd87-e40e-4255-af77-9e09cdb2fbf0,mongoose,Run Cycles,44.127838,4.0797673,France,"19 rue Guynemer,Espace Talabot, Ales, 30100, FR",,33466866084,
8f12c8b5-622b-44fe-92a1-cfa0bb837c0c,gt,CROCONUTS (BMX only),47.755502,7.266919,France,"ZI de la Savonnerie, LUTTERBACH, 68460, FR",www.crocoboardshop.com/,+330389574101,guillaumeneff@live.fr
2794d3a5-f940-4326-9b3a-21b919892f51,gt,ROUEN BIKE (BMX only),49.4410134,1.0866405,France,"45 rue Saint Eloi, ROUEN, 76000, FR",,+3302.35.71.34.30,fabrice@rouenbike.fr
38c4600b-6a4c-44e6-b2f3-239035a57a64,scott,CICLI MOTOR SNC DI PASQUINI ADELMO,43.4732687,11.8456698,Italy,"VIA ALBERT EINSTEIN 85, AREZZO, 52100",,+390575380672,info@ciclipasquini.it
0b2fcb0b-d8e0-4124-b31f-08e5f056227c,focus,MR BIKE DI MULTARI ROBERTO,45.5180347,10.3542176,Italy,Piazza Paganora 20 MAZZANO 25080,,+390302794287,bikemr@hotmail.it
47353506-7daf-4449-ad52-06585fe4db0e,trek,BIKE4LANGHE,44.5707342,7.919833,Italy,"Via Borgonuovo 182 Monchiero , 12060 Italy",,393760086352,
dadcc590-1feb-4107-bff7-163d840f46a6,ktm,LA BICI DI BRAINI FERNANDA & C SNC,44.6915025,8.8823646,Italy,"Via del Vapore, 17 15061 Arquata Scrivia (AL)",www.labici.it,tel:00390143/667594,info@labici.it
a5327cc8-161d-4a3f-9b9e-3a2c4b319ff4,superior,GO CYCLE EVASION,45.745,-0.880297,France,"2 CHE DES ORANGERS, Nancras, 17600",,0698075974,gocycle@orange.fr
39d735a1-454c-439d-8628-9dfd448b3180,cannondale,Sportler S.p.A.,46.47719685,11.3268601,Italy,"via Enrico Fermi 14, Bolzano, 39100",,39471208101,
fe923580-6378-48e8-b08f-c613a7e024f5,focus,LAB.C SRL - PARCOBICI,45.5875776,9.267499,Italy,"VIA PRINA, 22 MONZA 20900",www.parcobici.it,+393392237306,info@parcobici.it
c5c37adf-b896-46d6-8522-272348a23ca1,kalkhoff,Ecox Lyon Francheville,45.7475284,4.7567303,France,"22 Av. de la Table de Pierre, Francheville, 69340",www.ecox.fr,+330988549601,francheville@ecox.fr
49946c94-9980-4935-971b-f1df2e7211e4,scott,CELEBIKE SAS,43.9503984,8.1473413,Italy,"VIA AURELIA 182, ANDORA, 17051",,+39018288080,celebikesas@gmail.com
15ba8cbd-9b4f-4de6-b295-d1aa477f53a8,scott,CICLI FERCA S.R.L,45.8075849,9.0926946,Italy,"VIA LUIGI DOTTESIO 8, COMO, 22100",,+39031300160,info@cicliferca.com
5eb156e5-2a30-46f0-9ca9-b8110e0bd764,trek,ROYAL BIKE SHOP,47.335649258088765,0.7015166288360675,France,"19 RUE CHARLES COULOMB CHAMBRAY LES TOURS , 37170 France",www.royalbikeshop.com,0247866938,
f0ffcbea-f345-4217-9575-c7d58ac647c3,cannondale,Espace Bike 48,44.51834306,3.49136869,France,"25 Rte du Chapitre, Mende, 48000",,0466457297,
761f5e72-131f-4408-a87e-3fb9ad45d20e,gt,CYCLES BERRY / VELOLAND DIJON (BMX only),47.3170257,5.0427407,France,"3 Rue de Tivoli, DIJON, 21000, FR",,+3303.80.66.61.75,cycles.berry@wanadoo.fr
d7e27ce2-d02c-4cb1-b863-4e05d0f225df,focus,CAPRIO 1906 SRL,42.545282,12.0308809,Italy,"VIA SOLFERINO DELLA BATTAGLIA, 1 MONTEFIASCONE 01027",,+393357176816,caprio1906srl@gmail.com
ef36600c-d08d-4615-91a9-beada538c7b6,gt,CYCLES FOSSE (BMX only),49.3822974,3.3294692,France,"1 bis rue St Quentin, SOISSONS, 2200, FR",,+3303.23.53.46.09,cycles.fosse@wanadoo.fr
0c0c244f-bfba-4e01-9902-2c936eea4a00,trek,Culture Vélo Nice,43.7101561,7.192419399999999,France,"Hibiscus Park , 23 avenue auguste vérola Nice , 06200 France",www.culturevelo.com/-nice-saint-isidore-,0493185960,
caca6658-0945-4d62-a835-605e85e4838c,rockmachine,"DS Sport Specialist SPA, Centro Commerciale ""IL CONTINENTE""",45.7144,9.56266,Italy,Via Str. Regia Mapello 24030,www.df-sportspecialist.it,035908393,
1ad5b9b2-527c-47f0-9683-7077ee262006,giantliv,Sinalunga Motors Srl,43.220095,11.752862,Italy,"Via Piave 77, 53048 Sinalunga , SI",,+390577678107,info@sinalungamotors.it
643ebc13-1623-46c3-b556-a77f11f5971a,focus,BACCHETTI ALBERTO,45.7030937,10.3806555,Italy,Loc.Fornace 3 VESTONE 25070,www.ciclibacchetti.com,+390365820129,info@ciclibacchetti.com
3b26d936-a332-4a42-945e-67b100f16ae6,mongoose,Leonardi Racing,43.5702684,12.1380896,Italy,"Via Santa Croce, Sansepolcro (AR), 52037, IT",,0575740550,info@leonardiracing.it
3c9480e9-c1b8-4373-9379-4d70a130379f,ktm,LED SPORTS BIKE,46.2916306,4.9126355,France,120 ZA la Teppe 01380 SAINT-ANDRE DE BAGÉ,,tel:+33973584575,ledsportsbike@gmail.com
05c8dd09-b07b-4dd1-bbde-53bd8ed0f196,gt,CULTURE VELO/SO VELO (BMX only),49.155418,2.253158,France,"Centre commercial Les portes de l Oise-L, CHAMBLY, 60230, FR",,+330130347960,60chambly@culturevelo.com
f5a4dc1c-ba44-4808-a958-4d3e3abd8ae4,scott,MY VELO MARCHIENNES,50.3946,3.2303,France,"ROUTE NATIONALE D957 11, MARCHIENNES, 59870",www.culturevelo.com,+330972446088,marchiennes@my-velo.fr
551d363f-eb6c-4585-a78f-c849b7471502,cannondale,Cycles Scanziani Antonio Di Scanziani,45.74029749,9.46607155,Italy,"VIA IV NOVEMBRE, Cisano Bergamasco, 24034",,035787440,
5b37e0a6-1787-4f78-8723-4609efe9439b,giantliv,TABO COMPANY di TLC,46.1684504,9.3735946,Italy,"VIA PRATO DEL VENTO 6, 22010 Gera Lario , CO",,+39034494062,luca@tabosurf.com
178945bb-ab30-4a40-8be9-8dc6e17e219b,scott,COSENTINO BICI S.R.L,38.1470767,13.3434231,Italy,"PIAZZA LEONI 26, PALERMO, 90143",,+39091525770,cosentinocarmelo@live.it
3ca1b8ec-bac9-49d5-b2ae-f4c1e5f2d244,giantliv,GIANT AUBAGNE - SAS GIANT STORE AUBAGNE,43.2980376,5.5803927,France,"205 CHEMIN DE CEINTURE, 13400 AUBAGNE",www.giant-aubagne.fr/fr,0442325000,giantstoreaubagne@gmail.com
357472b8-4d91-450b-808e-1a46738b9541,ktm,Ski & Bike Armin,46.5583495,11.7267939,Italy,Str. Dursan N°108 39047 S. Cristina di Val Gardena (BZ),www.skiarmin.com,tel:00390471/792199,info@skiarmin.com
c3f9ee50-9d0f-4a40-9dae-bde7dcb5d38b,scott,DUE ERRE DI ROSSI CLAUDIO,45.7971177,9.8334186,Italy,"VIA DANTE ALIGHIERI 2, GAZZANIGA, 24025",,+39035713556,rossiduerrecicli@gmail.com
00ec3132-b3d5-4dfc-9f45-69a97538fabb,giantliv,Happy Bike di Casciotta Vittorio,45.4945485,10.3643325,Italy,"Via Boccaccio 29, 25080 Mazzano , BS",www.facebook.com/happybike94,+390305058932,info@happybikeonline.it
10b1bbde-e122-4bb1-8684-38e0e37c59c3,kalkhoff,JMC Cycles SARL,42.5042025,9.4638318,France,"Lieu-dit Petracolo, Vescovato, 20215",www.jmc-cycles.fr,+330495574747,contact@jmc-cycles.fr
b33ac2ec-d0ae-46c7-875d-ff89885ed8ed,cannondale,Feelout 24,45.3366145,1.050726,France,"3 Av. Gambetta, Excideuil, 24160",,0686315837,
ce708aec-ba3c-49a9-a2ce-a8f19d65bd1c,scott,FUNWAY VELOS,43.1228,6.0075,France,"AVENUE LOUIS ANTOINE SAINT JUST 375, LA GARDE, 83130",www.veloland.com,+330494759789,funwaybike@hotmail.fr
76726192-af5c-41fe-ae3f-0de7f492ead2,ktm,SARL SPORT VELO 72,48.0320858,0.1820227,France,"11, rue du parc Manceau Zac de l Ardoise 72000 LE MANS",,tel:+33243511600,mondovelolemansnord72@orange.fr
e188e273-ad85-4e16-aaad-77d4c20f34c4,superior,CORNER BIKE VIRE,48.8565,-0.871697,France,"Av. de Bischwiller, Vire-Normandie, 14500",,0681202551,vire@cornerbike.fr
a3fed562-ca58-4286-9b8f-bc52086b34b5,cannondale,Friwheel Cycles,43.24523941,1.21917554,France,"3 Rte de Latrape, Rieux-Volvestre, 31310",,0581645746,
3fa5ca24-a869-4984-86b0-d0481b4e7bca,giantliv,GIANT MONT DE MARSAN - SAS CYCLES BARTEAU MONT DE MARSAN,43.8874339,-0.4883973,France,"337 BOULEVARD JEAN LARRIEU, 40000 MONT DE MARSAN",www.giant-mont-de-marsan.fr/fr,0558911867,giantm2mcb@gmail.com
96388660-413c-47b9-9555-e467b363d046,scott,INTERSPORT HERBLAY,48.9982376,2.1852792,France,"RUE RENE CASSIN 2, HERBLAY, 95220",www.intersport.fr,+330161350888,l.neukirch@reseau-intersport.fr
dce5aa88-e3a4-444c-8532-a412ea91de85,scott,MOTO RACE SRL,45.67078,9.9556619,Italy,"CORSO EUROPA 38, SARNICO, 24067",,+39035913506,info@motoracesarnico.it
481dfac0-5f64-4c9d-8154-4308710d1198,superior,INTERSPORT VILLEBON,48.7041,2.2517,France,"C.CIAL VILLEBON, Villebon-sur-Yvette, 91140",,01.60.13.84.60,marie-laure.rot@groupe-prosport.com
9dfb2e2f-c303-4d49-ac88-2bd8b3195861,focus,BP Diffusion - Véloride SAS,48.4952324,7.5785378,France,1a rue du Stade Innenheim 67880,www.veloride.net,+33388446525,veloride.net@gmail.com
a6b6dbc7-fc61-40b6-9aa5-56641276418f,scott,LE TEMPS DU VELO,43.9,2.1667,France,"RUE MELAUDY 4, LE SEQUESTRE, 81990",letempsduvelo.fr/,+330563361050,ltdv81@gmail.com
36a118a3-c218-4ddf-b36f-e00511a5e581,cannondale,Bike N Co,48.95718021,2.92174787,France,"159 Avenue de la Victoire, Meaux, 77100",,0160612648,
4d2a818b-d776-4cd7-85a6-ca358901a5d5,trek,FLAGSHIP STORE - OFFICINE THOMAS,45.1834861,7.720341899999999,Italy,"VIALE EUROPA, 38 LEINI - TORINO , 10040 Italia",www.facebook.com/officinethomas,01119458397,
35128c99-bd8e-4d75-88fd-562282e0e086,kalkhoff,Ecox Paris Est,48.8551951,2.4107651,France,"84 Bd Davout, Paris, 75020",www.ecox.fr,+33143674228,parisest@ecox.fr
f3e410a7-8b17-4d89-9edb-b3bca66be6d7,ktm,VETEIX,49.4143698,2.1144703,France,18 Impasse Bernard Palissy 60000 Beauvais,www.club-internet.fr,tel:0344834483,rentacar60@club-internet.fr
09da2a68-94c2-40d3-973d-2301c930fc97,giantliv,GIANT PORNIC - SARL JUMABIKE,47.1123672,-2.0757479,France,"1 RUE DU CHAUDRON, 44210 PORNIC",www.giant-pornic.fr/fr,0240219357,giantstorepornic@orange.fr
14ec684d-cf6c-4aec-ba3d-23989915ea58,giantliv,GIANT LYON OUEST - CYCLES BLAIN,45.6778925,4.7718956,France,"7 ROUTE DE LYON, 69530 BRIGNAIS",www.giant-lyon.fr/fr,+33478057534,brignais@cycles-blain.com
bcceb978-deea-41c0-a1cd-85076b3930c8,ktm,Cicli Ghesla,45.99256,11.26141,Italy,"Sede Piazza Vecchia,14 38052 Caldonazzo (TN)",www.ciclighesla.com,tel:0039338/7593891,info@ciclighesla.com
14318bf0-35be-4b8d-beec-5682a43d430e,haibike,Bikepoint Meran KG,46.67208365293142,11.159823531509284,Italy,"Lauben 337, 39012 Meran (BZ)",www.bike-point.com,+390473237733,info@bike-point.com
cd8abb4d-4814-41de-9a4d-f2d525c9cb51,cannondale,JM-cycles Montceau,46.6757504,4.36581735,France,"15 Rue Danton, Montceau-les-Mines, 71300",,0385557823,
20deff68-c3b7-4536-8d0b-fd606131af80,scott,CYCLES DU BOUT DU MONDE,48.2501798,-4.4727313,France,"boulevard Pierre Mendès-France 6, CROZON, 29160",,,cycles-du-bout-du-monde@orange.fr
12d97684-5bf3-4d8c-bce1-95d10b7b53a8,scott,ATELIER DU CYCLE NANCY,48.7084517,6.2505142,France,"RUE DE L ARBOIS 2, PULNOY, 54425",,+330961051805,julienchardon55@gmail.com
9a0d94ef-77b5-4bfa-967d-b0f451f861ba,superior,INTERSPORT SAINT OMER,50.7329,2.27778,France,"Av. des Frais Fonds, Arques, 62510",,03.21.11.54.10,ifacquet@groupe-prosport.com
dd93967b-3536-46b8-8af8-e08a1d0fd745,trek,OXYBIKE,43.73617,7.287172,France,"23 QUAI DE LA BANQUIERE , immeuble le palladio bat b SAINT ANDRE DE LA ROCHE , 06730 France",www.oxybike-cycles.fr,0493546277,
416b001c-46e6-47a6-919f-2bcd9a567026,focus,Sport Aixtrem SARL,45.7063764,5.9114234,France,60 Av Franklin Roosevelt Aix Les Bains 73100,www.sportaixtrem.com,+330479883882,contact@sportaixtrem.com
d417c5bd-4a7e-4210-81ef-e633df5c1d29,focus,CICLO RECORD DI SANTINO BUCCA,38.1629359,15.2447539,Italy,Via Dante 278 MERÌ 98040,www.virgilio.it,+390909763765,ciclorecord@virgilio.it
1a798735-e17b-4984-92ab-c9c4ef804376,scott,LOGICBIKE,41.8446745,12.2713268,Italy,"VIA DELLA MURATELLA 1735, FIUMICINO, 00054",,+390697842449,
92adad1f-8528-4357-9c68-75f3049c16b9,scott,CYCLES MAHEAU,46.792588,-2.057285,France,"RUE DU GENERAL DE GAULLE 9, ST JEAN DE MONTS, 85160",www.cyclesmaheau.fr,+330251582783,cycles.maheau85@gmail.com
aeef73b0-df9f-4c7e-ae4d-c00ab0c3c386,superior,INTERSPORT ROMORANTIN,47.3774,1.7346,France,"Rte de Vernou, Romorantin-Lanthenay, 41200",,02.54.76.88.00,groupepriou@reseau-intersport.fr
c6f7704d-8737-4eb0-99c3-62fb4a919eb2,superior,CORNER BIKE CAEN,49.1818,-0.360566,France,"3.5 RUE DE BERNIERES, CAEN, 14000",,0681202551,caen@cornerbike.fr
69cc677f-a883-466a-a59d-05ea198bd662,trek,S.S.D RT96 R.L.,45.61523382496282,9.922459900000016,Italy,"Via Firenze 125 Palazzolo sull’Oglio , 25036 Italy",www.rt96.it/,0305356495,
a14cd96d-58f0-4ee5-b465-486c9ebd1ab1,focus,OVELO Nice,43.6968712,7.2409794,France,49 Bd de la Madeleine Nice 06000,www.ovelo.fr,+330422138244,nice@ovelo.fr
fd7b71a8-d0df-4b55-8be1-bf5202aa91ee,focus,Bee Sphere Energy SARL,43.3879194,5.6022315,France,Avenue de la Malvesine 280 La Bouilladisse 13720,www.cycloplanet.com,,labouilladisse@cycloplanet.com
76eb22bc-db86-4e01-8556-d5550bf53cae,gt,Absolubike Arras,50.2999548,2.7281812,France,"1 Re Léon Foucault, Arras, 62000, FR",www.absolubike.fr,+33374391939,
f0162793-ad87-4a30-b823-465fc7a7ec79,scott,SPORTLER -Trento-,46.067885,11.1238698,Italy,"VIA MANTOVA 12, TRENTO, 38122",,+39461981290,luca.b@sportler.com
0c914b8c-64df-4363-8a93-516702354647,ktm,SARL Run & Bike Shop,47.208774,-0.7275767,France,15 rue du commerce Chemillé 49120 Chemillé en Anjou,,tel:+33647379921,runandbikeshop@gmail.com
980cc6ad-7335-4cb9-841b-6d499a186d69,trek,biciesport,45.9169413,11.0585989,Italy,"Via Europa 2/L VOLANO , 38060 Italy",www.biciesport.it,0464462955,
60b3b8a9-b4eb-46cf-9054-1ea4431ed982,scott,ALTISPORTS 43 ST DIDIER EN VELAY,45.3023,4.2756,France,"LIEU DIT ROBERT, ST DIDIER EN VELAY, 43140",,+330471560915,altisports43@orange.fr
c7d84dc8-8f3e-4eba-ac50-8e0f1246a80b,trek,CYCLES EVASION 14,49.1448761460566,0.22203837301634,France,"104 rue Henry Chéron LISIEUX , 14100 France",,330231317417,
50538f47-32e6-4fb7-8144-8739bb118b13,scott,CICLISSIMO SNC DI BERTOLDI STEFANO,44.716579,11.1461281,Italy,"VIA SANT AGATA 835, CREVALCORE, 40014",,+39051981416,info@ciclissimo.it
8b4dceed-0e3c-481c-b74e-0c48a74d1b33,focus,Station Bee s Soreze,43.4527053,2.0681475,France,19 rue du Maquis Sorèze 81540,www.bee-s.fr,,sourcing@bee-s.fr
e3251029-6f9d-41f5-8fb8-4ede98ccc56c,cannondale,Evolution Bike Biciclette By Elia Viviani,45.33274273,11.07918153,Italy,"Via Bassa, 39, Vallese, 37050",,0454624845,
869a349c-113d-4d83-b8c1-6695ab1605c1,trek,BOUTICYCLE CLERMONT FD,45.7729261,3.081152,France,"16 RUE RAMOND CLERMONT FERRAND , 63000 France",bouticycle.com/-clermont-ferrand-,0473438452,
61db02c5-abed-4ca3-adcb-7794651d4d2e,scott,PASSION VELO,44.8068033,3.2749523,France,"AVENUE DE LA REPUBLIQUE 38 BIS, ST CHELY D APCHER, 48200",www.passion-velo-lozere.fr,+330466311815,passion.velo@wanadoo.fr
06b64ede-fc3d-4063-af28-1546a18535ff,trek,En Selle Marcel Paris - Saint Germain des Prés,48.85333610000001,2.3259153,France,"26 Boulevard Raspail PARIS , 75007 France",www.ensellemarcel.com,0143259842,
67c6dbe0-be70-4a37-a0e1-afc72321b5c4,kalkhoff,Cyclable Lille Centre,50.638055,3.066296,France,"Rue des Arts 11-13, Lille, 59000",www.cyclable.com,,jeanchristophe.broggini@cyclable.com
79f31f09-2025-4032-925d-b6eb3a1570b0,gt,CARMEN / VELO AND CO (BMX only),47.6141097,-3.0587146,France,"ZA LE MOUSTOIR, CRACH, 56950, FR",,+3302.97.52.91.91,veloandco@gmail.com
c60fba3d-cf93-461d-b532-5e463c5073f7,cannondale,BIKE LAB,40.6873322,14.77079273,Italy,"Via Ottavio Bottigliero, 5, Salerno, 84126",,0892964267,
b7735e93-477c-408a-9480-68eb942700ae,cannondale,Bike Sport Adventure,37.6588777,14.8356766,Italy,"Via Enrico Fermi, 92, Adrano, 95031",,0959893143,
e5f2152b-d7a2-4aea-8183-ef78ab281cd4,cannondale,Sport e Service,38.1112641,14.71255489,Italy,"Via Nazionale, 99, Capri Leone, 98070",,3246211877,
73506be0-6b79-4ea9-8da3-b1f9b2cc1877,focus,Bees BRIN D AIR Villeréal,44.637858,0.7408678,France,Blv Alphonse De Poitiers Glady 3 Villeréal 47200,www.stationsbees.com,,villereal@stationsbees.com
e94afa29-25ed-4568-96ce-4a6e3c862577,trek,CULTURE VELO NANCY,48.6545754,6.184523200000001,France,"14 RUE D ALBERTVILLE VANDOEUVRE LES NANCY , 54500 France",www.culturevelo.com/-nancy-,0383954555,
8eff76c2-9ec8-4be8-9d23-9ebffc0d550a,gt,SARL Y.SPORT/SPORT 2000 (BMX only),48.2020539,-4.093313,France,"rue de la gare, CHATEAULIN, 29150, FR",,+3302.98.86.36.12,melissandre.sport2000@gmail.com
279a2203-9111-41a1-a916-a0011a6657f8,giantliv,GIANT CHALON SUR SAONE - SARL A BICYCLETTE,46.7930866,4.8275185,France,"AVENUE FRANCHET D ESPEREY, 71880 CHATENOY LE ROYAL",www.giant-chalon-sur-saone.fr/fr,0385435786,abicyclette71@gmail.com
d1cfef84-ba11-4fe4-9925-d68856467bd3,gt,CYCLE-OBSESSION.COM (BMX only),47.339941,-0.227104,France,"14 route de Saumur, GENNES, 49350, FR",,+3302.41.40.74.41,contact@cycle-obsession.com
7f984d69-9550-4f0d-97ec-69fa6587a76e,giantliv,Cicli Morbiato di Morbiato Giorgio Giuseppe,45.3655486,11.8427428,Italy,"Strada Battaglia 129, 35020 Albignasego , PD",www.ciclimorbiato.it,+390498809811,ciclimorbiato@gmail.com
6043ff78-1bfe-47ee-987e-6dfc268ce3d5,focus,RUSH SRL,45.8514805,9.3770685,Italy,"VIA ALESSANDRO VOLTA, 32 MALGRATE 23864",www.rushriders.cc,+3903411840274,emanuele@rushriders.cc
31331fb5-c0ef-4dd2-bbdd-c22c009d7fc9,gt,FRENCHYS VENTE INTERNET (BMX only),45.630606,4.4370724,France,"ZI du Combier, ST SYMPHORIEN SUR CO, 69590, FR",,,
fb0cc8a2-c922-4b60-add1-b9916e661183,cannondale,Le Relais Du Cycle,48.6536208,7.2374251,France,"6 Rue Saint-Léon 9, Dabo, 57850",,0387230860,
a8326c71-5964-49a2-b0f5-54c693022c15,haibike,Cycles et Peche Neveur,46.206791602196496,-1.514936260420151,France,"2 Place de la Chapelle, 17590 ARS EN RE",,+33546292088,bruno.tollu@gmail.com
a1b6c284-ced6-431e-bc88-3123a9dc9f1e,rockmachine,"DF SPORT SPECIALIST SPA, Centro Commerciale ""LE VELE""",45.4679,10.5377,Italy,Via Guglielmo Marconi Desenzano del Garda 25010,www.df-sportspecialist.it,0309911845,
9d013bbc-d4cc-4337-a394-a7eb5d2e924c,giantliv,Tekno Bike di Giannuzzi Andrea,40.851937,17.130283,Italy,"Viale C. Colombo 70, 70017 Putignano , BA",www.teknobikeputignano.it,+390804053904,teknobike99@tiscali.it
e9ab3561-c650-430c-a491-30c196e9a2fb,kalkhoff,Cycles Delcayre SARL,48.8498759,2.3992283,France,"rue de la Plaine 1,, Paris, 75020",,+330143730610,cyclesdelcayre@gmail.com
dd8fee2b-2f67-4fe0-8636-c64a4882ee0e,trek,Balagne bike,42.63269371334801,8.942150415344248,France,"15 avenue Paul Doumer L isle Rousse , 20220 France",,0495627290,
0be8a4f7-a78f-485d-bdfd-7ca66cf85692,cannondale,OFFICINA BICI snc,44.72182969,8.34134612,Italy,"Piazza Dante Alighieri, 13, Calamandrana, 14042",,3407352574,
2f805330-d09f-4071-89a7-5d92b868226b,scott,LEVANTE BIKE DI GATTI STEFANO & C SNC,44.8441796,10.4563236,Italy,"VIA STRADA DELLA CISA 345, BRESCELLO, 42041",,+393477707913,levantebike@gmail.com
07e99f84-b3b9-488e-9c9e-5b3238600af2,ktm,SNOW SPORT SRL,46.1618484,10.765255,Italy,"Via Bolognini, 45 38086 Pinzolo (TN)",www.nardis-sport.it,tel:00390465501599,info@nardis-sport.it
2470bb19-4828-4d33-9529-4dbb072b22a1,kalkhoff,Velo Electrique France SAS,48.8811725,2.3738056,France,"33 Avenue Secretan, Paris, 75019",www.veloelectriquefrance.fr,+3348435131,ssoussan@veloelectriquefrance.fr
e4810585-948d-4dc2-925c-3b0ec9a9bf90,giantliv,Grandis S.r.l.,45.465359,11.0224992,Italy,"via Strada della giara 11, 37142 Verona , VR",,+39045525145,grandisbike@gmail.com
16b2573c-c685-4527-80d3-9828f974d73e,cannondale,Moxxocycles Cuneo,44.70422144,7.84684749,Italy,"Str. Bria, 56, Bra, 12042",,3939661642,
15b56bf4-c1de-4345-be56-efe9953b5cf8,scott,ELEMENTS CYCLES,43.7926685,5.7738272,France,"AVENUE LANGUEDOC 5, STE TULLE, 04220",,+330413375010,elementscycles@gmail.com
f5b161d5-e0c0-4f43-865a-79f391c639fe,gt,2 JBIKE EUROPE/ACYCLES (BMX only),45.4658959,4.3988645,France,"21 rue charles cholat, ZI Nord Est Montr, ST ETIENNE, 42000, FR",www.acycles.fr,+3304.28.04.05.83,ajackson@acycles.fr
8336ac09-a534-4bc1-89b7-22e1107d9c7a,trek,CULTURE VELO THONON,46.37019,6.484916,France,"21 CHEMIN DE RONDE THONON LES BAINS , 74200 France",,0450261287,
c963aa35-5422-4768-b1f1-8aa8df50957d,scott,VELO 1 MAX,47.3790421,-1.1878484,France,"RUE PIERRE DE COUBERTIN 37, ANCENIS, 44150",,+330240830269,velo1max@orange.fr
d24781ab-df53-4cf7-8949-767355bbb944,gt,ETS FOUCHY MOTOCYCLES (BMX only),44.7905122,-0.5670472,France,"445 Route de Toulouse, VILLENAVE D ORNON, 33140, FR",www.fouchy-cycles.com/,+330556046343,fouchycycles@wanadoo.fr
78ec9b5b-c000-4c84-afa0-3af534f273e7,trek,BIK BIKE DI RICCIUTI,45.9166,10.88046,Italy,"VIA S. CATERINA 9 ARCO , 38062 Italia",www.bikbike.com,0464514385,
7b166d3d-573b-4bfb-a314-aa3826a10cea,cannondale,MobE - Mobilita Elettrica,44.41799407,11.59171567,Italy,"Via Giulio Golini, 61/11, Cà Bianca, 40024",,051948785,
b3995d9f-881d-46a6-9285-69fd03c2c2b5,mongoose,Cycles Fauvel Sarl,49.0148629,0.1554554,France,"Boulevard de South Molton, Livarot, 14140, FR",,33231635126,
08c0d406-41a0-49a5-8742-c2c6b11b1c58,trek,ABSOLUT BIKE PROVENCE,43.86723,5.142033,France,"2 QUAI DES ENTREPRISES MAUBEC , 84660 France",www.absolutbikeprovence.com,0490750552,
68c6b864-10c6-4f71-87c9-1754d8fa5a5c,scott,ROADHOUSE MOTORCYCLE S.R.L.,40.576324,17.0382742,Italy,"VIA ENRICO DE NICOLA 12, PALAGIANO, 74019",,+390998889282,info@roadhousemotor.com
c050a6a2-5e5a-43fe-88fc-089fc9257715,trek,ESPACE BELLOUIS,48.707693899544765,2.122412188360596,France,"1 Route de Châteaufort Gif-Sur-Yvette , 91190 France",www.espacebellouis.com,0169286278,
f8f90866-806d-44d9-a5a7-9e5936b051a1,ktm,ÉNERGIE VÉLO ORCHIES,50.475144,3.2337731,France,Zac de l Europe Retail Park Zone Nord - Local 4 59310 ORCHIES,,tel:+33320598993,energievelo@gmail.com
b6680f41-1a9a-40e9-9666-8fbb9fb62a9b,kalkhoff,VSP Naturet SARL,49.1474468,5.4091411,France,"Rue Jean Gaitier Boissière Zac du Dragon 4, Verdun, 55100",,+330329885725,lorrainevsp@hotmail.fr
4efca54b-4742-4b3c-a7e4-bf39cf1e873c,ghost,Noleggio Sci Hofer,46.99353,11.978393,Italy,"KLAUSBERG 67, STEINHAUS/AHRNTAL, 39030",www.skiverleih-hofer.com,00393495743178,info@skiverleih-hofer.com
34d4bb0c-6270-46b1-8a08-bc992f79e308,focus,Cyber Velo SARL,48.7597868,1.9308243,France,Rue Claude Bernard 1 Maurepas 78310,www.cybervelo.com,+330130051577,stephane@cybervelo.com
815b7bd7-3297-407b-afe5-b619cb33505d,focus,MC2 - Monistrol Cycles Concept,45.2872275,4.1615891,France,ZA Le Pecher Monistrol sur Loire 43120,www.monistrol-cycles-concept.com,+330471593256,velo.mc2@gmail.com
605921c8-d6be-4134-8a9f-75285e001662,cannondale,Cycles Center,43.39667892,6.04912996,France,"190 BLV LONG ZI LES CONSACS, Brignoles, 83170",,0981425278,
fb8e42ac-6fec-4332-9e9b-949d2b34a613,mongoose,Fun bike 64 Eurl,43.4883397,-0.7725941,France,"Route de Pau (Adrien Plante), Orthez, 64300, FR",,33559093602,
bb1ec518-82ad-4ee5-a7ed-a4434ad47b53,giantliv,GIANT TOULON - SARL G3BIKE,43.1451076,6.0259339,France,"340 QUARTIER LA PIERRE RONDE, 83130 LA GARDE",,+33494588452,gianttoulon@gmail.com
1886b471-d5bd-432c-8a48-5002ba66a504,focus,EVOLUTION BIKE,41.073659,14.292989,Italy,Via Nazionale appia 114 CASAPULLA 81020,,+3908231873757,evolutionbikes@libero.it
d92b556c-355c-49b0-a6cf-226cd61506fb,scott,EXTREME BIKES,43.2917299,5.3828915,France,"BOULEVARD THEODORE THURNER 6-8, MARSEILLE 06, 13006",www.extreme-bikes.fr,+330495082113,funbike13@gmail.com
682c07cc-d576-4e78-bae6-ea45711d5612,giantliv,GIANT CITY MILLAU - SARL KACEMA,44.0970427,3.0815908,France,"2 BD SAINT ANTOINE, 12100 MILLAU",giant-city-millau.fr,+33565600810,orcel3@wanadoo.fr
ed96e5c9-f6de-4d9c-82ab-ab16ac734fa2,focus,BICIPAOLO DI VALLINI PAOLO,43.3924794,10.434101,Italy,VIA AURELIA 501 ROSIGNANO SOLVAY 57016,www.virgilio.it,+390586769095,bicipaolo@virgilio.it
b9b35e05-b692-4159-b5fc-d6f4fc6d81dd,trek,VILLENEUVE CYCLES,44.41,0.72823,France,"38 Avenue Goudouneche/Route De Fumel VILLENEUVE SUR LOT , 47300 France",,330553708290,
fca9bedb-9bca-4ca0-b575-937e3bfd9520,focus,GIUSTA SRL,44.9040353,8.2098914,Italy,"VIA SECONDO ARO , 66 ASTI 14100",www.giustasrl.com,+3901411784484,g.campaner@giustasrl.com
